[
    {
        "type": "Attraction",
        "region": "New York City",
        "sub_region": "Bronx",
        "name": "Yankee Stadium",
        "address": "1 E 161st St",
        "coordinates" : [40.8295441, -73.9264603],
        "city": "Bronx",
        "state": "NY",
        "zip_code": "10451",
        "phone_number": "866-800-1275",
        "url": "http://www.newyork.yankees.mlb.com"
    },
    {
        "type": "Attraction",
        "region": "Finger Lakes",
        "sub_region": "Canandaigua Lake",
        "name": "Bristol Mountain Aerial Adventures",
        "address": "5589 South Hill Road",
        "coordinates" : [42.7477524, -77.426354],
        "city": "Canandaigua",
        "state": "NY",
        "zip_code": "14424",
        "phone_number": "585-374-1180",
        "url": "http://www.bristolmountainadventures.com"
    },
    {
        "type": "Attraction",
        "region": "Finger Lakes",
        "sub_region": "Canandaigua Lake",
        "name": "Bristol Mountain Ski Resort",
        "address": "5662 State Route 64",
        "coordinates" : [42.776329, -77.4035416],
        "city": "Canandaigua",
        "state": "NY",
        "zip_code": "14424",
        "phone_number": "585-374-6000",
        "url": "http://www.bristolmountain.com"
    },
    {
        "type": "Attraction",
        "region": "Finger Lakes",
        "sub_region": "Canandaigua Lake",
        "name": "Canandaigua Lady",
        "address": "205 Lakeshore Drive",
        "coordinates" : [42.8750702, -77.2596688],
        "city": "Canandaigua",
        "state": "NY",
        "zip_code": "14424",
        "phone_number": "585-396-7350",
        "url": "http://www.cdgaboatcruises.com"
    },
    {
        "type": "Attraction",
        "region": "Finger Lakes",
        "sub_region": "Canandaigua Lake",
        "name": "CMAC Performing Arts Center",
        "address": "3355 Marvin Sands Drive",
        "coordinates" : [42.8665026, -77.2446947],
        "city": "Canandaigua",
        "state": "NY",
        "zip_code": "14424",
        "phone_number": "585-394-4400",
        "url": "http://www.cmacevents.com"
    },
    {
        "type": "Attraction",
        "region": "Finger Lakes",
        "sub_region": "Canandaigua Lake",
        "name": "Joseph's Wayside Market",
        "address": "201 South Main Street",
        "coordinates" : [42.6086517, -77.4084489],
        "city": "Naples",
        "state": "NY",
        "zip_code": "14512",
        "phone_number": "585-374-2380",
        "url": "http://www.josephswaysidemarket.com"
    },
    {
        "type": "Attraction",
        "region": "Finger Lakes",
        "sub_region": "Canandaigua Lake",
        "name": "Naked Dove Brewing Company",
        "address": "4048 State Routes 5 and 20",
        "coordinates" : [42.8658032, -77.2228649],
        "city": "Canandaigua",
        "state": "NY",
        "zip_code": "14424",
        "phone_number": "585-396-2537",
        "url": "http://www.nakeddovebrewing.com"
    },
    {
        "type": "Attraction",
        "region": "Finger Lakes",
        "sub_region": "Canandaigua Lake",
        "name": "New York Wine & Culinary Center",
        "address": "800 South Main Street",
        "coordinates" : [42.8755684, -77.2733917],
        "city": "Canandaigua",
        "state": "NY",
        "zip_code": "14424",
        "phone_number": "585-394-7070",
        "url": "http://www.nywcc.com"
    },
    {
        "type": "Attraction",
        "region": "Finger Lakes",
        "sub_region": "Canandaigua Lake",
        "name": "Sonnenberg Gardens & Mansion Historic Park",
        "address": "151 Charlotte Street",
        "coordinates" : [42.89814, -77.2721558],
        "city": "Canandaigua",
        "state": "NY",
        "zip_code": "14424",
        "phone_number": "585-394-4922",
        "url": "http://www.sonnenberg.org"
    },
    {
        "type": "Attraction",
        "region": "Finger Lakes",
        "sub_region": "Cayuga Lake",
        "name": "Hidden Marsh Distillery",
        "address": "2981 Auburn Rd",
        "coordinates" : [42.9501358, -76.7659921],
        "city": "Seneca Falls",
        "state": "NY",
        "zip_code": "13148",
        "phone_number": "315-568-8190",
        "url": "http://www.beevodka.com"
    },
    {
        "type": "Attraction",
        "region": "Finger Lakes",
        "sub_region": "Cayuga Lake",
        "name": "Lively Run Goat Dairy Farm & Creamery",
        "address": "8978 Co Rd 142",
        "coordinates" : [42.5888819, -76.7233034],
        "city": "Interlaken",
        "state": "NY",
        "zip_code": "14847",
        "phone_number": "607-532-4647",
        "url": "http://www.livelyrun.com"
    },
    {
        "type": "Attraction",
        "region": "Finger Lakes",
        "sub_region": "Cayuga Lake",
        "name": "National Women's Hall of Fame",
        "address": "76 Fall St.",
        "coordinates" : [42.9104579, -76.7976154],
        "city": "Seneca Falls",
        "state": "NY",
        "zip_code": "13148",
        "phone_number": "315-568-8060",
        "url": "http://www.greatwomen.org"
    },
    {
        "type": "Attraction",
        "region": "Finger Lakes",
        "sub_region": "Cayuga Lake",
        "name": "Women’s Rights National Historical Park",
        "address": "136 Fall St",
        "coordinates" : [42.9106128,-76.8002238],
        "city": "Seneca Falls",
        "state": "NY",
        "zip_code": "13148",
        "phone_number": "315-568-2991",
        "url": "http://www.nps.gov/wori"
    },
    {
        "type": "Attraction",
        "region": "Finger Lakes",
        "sub_region": "Conesus & Hemlock Lakes",
        "name": "Letchworth State Park",
        "address": "1 Letchworth State Park",
        "coordinates" : [42.5911617, -78.0628878],
        "city": "Castile",
        "state": "NY",
        "zip_code": "14424",
        "phone_number": "585-493-3600",
        "url": "http://www.nysparks.com/parks/79/details.aspx"
    },
    {
        "type": "Attraction",
        "region": "Finger Lakes",
        "sub_region": "Conesus & Hemlock Lakes",
        "name": "National Warplane Museum",
        "address": "3489 Big Tree Lane",
        "coordinates" : [42.794848, -77.8339217],
        "city": "Geneseo",
        "state": "NY",
        "zip_code": "14454",
        "phone_number": "585-243-2100",
        "url": "http://www.nationalwarplanemuseum.org"
    },
    {
        "type": "Attraction",
        "region": "North Country",
        "sub_region": "Greater Adirondacks Area &#40;Saratoga Springs, Lake Placid&#41;",
        "name": "Adirondack Pub & Brewery",
        "address": "33 Canada St",
        "coordinates" : [43.4185181, -73.714119],
        "city": "Lake George",
        "state": "NY",
        "zip_code": "12845",
        "phone_number": "518-668-0002",
        "url": "http://www.adkbrewery.com"
    },
    {
        "type": "Attraction",
        "region": "North Country",
        "sub_region": "Greater Adirondacks Area &#40;Saratoga Springs, Lake Placid&#41;",
        "name": "Druthers Brewing Company",
        "address": "381 Broadway",
        "coordinates" : [43.0810008, -73.7857548],
        "city": "Saratoga Springs",
        "state": "NY",
        "zip_code": "12866",
        "phone_number": "518-306-5275",
        "url": "http://www.druthersbrewing.com"
    },
    {
        "type": "Attraction",
        "region": "North Country",
        "sub_region": "Greater Adirondacks Area &#40;Saratoga Springs, Lake Placid&#41;",
        "name": "Great Escape-Six Flags",
        "address": "89 Six Flags Drive",
        "coordinates" : [43.3525467, -73.6974182],
        "city": "Queensbury",
        "state": "NY",
        "zip_code": "12804",
        "phone_number": "518-824-6000",
        "url": "http://www.sixflags.com/greatescape"
    },
    {
        "type": "Attraction",
        "region": "North Country",
        "sub_region": "Greater Adirondacks Area &#40;Saratoga Springs, Lake Placid&#41;",
        "name": "Lake George Steamboat",
        "address": "57 Beach Road",
        "coordinates" : [43.4208107,-73.7093353],
        "city": "Lake George",
        "state": "NY",
        "zip_code": "12845",
        "phone_number": "518-668-5777",
        "url": "http://www.lakegeorgesteamboat.com"
    },
    {
        "type": "Attraction",
        "region": "North Country",
        "sub_region": "Greater Adirondacks Area &#40;Saratoga Springs, Lake Placid&#41;",
        "name": "New York State Museum",
        "address": "222 Madison Avenue",
        "coordinates" : [42.6476604, -73.7593049],
        "city": "Albany",
        "state": "NY",
        "zip_code": "12230",
        "phone_number": "518-474-5877",
        "url": "http://www.nysm.nysed.gov"
    },
    {
        "type": "Attraction",
        "region": "North Country",
        "sub_region": "Greater Adirondacks Area &#40;Saratoga Springs, Lake Placid&#41;",
        "name": "Nine Pin Cider Works",
        "address": "929 Broadway",
        "coordinates" : [42.6617662, -73.7441491],
        "city": "Albany",
        "state": "NY",
        "zip_code": "12207",
        "phone_number": "518-449-9999",
        "url": "http://www.ninepincider.com"
    },
    {
        "type": "Attraction",
        "region": "North Country",
        "sub_region": "Greater Adirondacks Area &#40;Saratoga Springs, Lake Placid&#41;",
        "name": "Olde Saratoga Brewing Company",
        "address": "131 Excelsior Avenue",
        "coordinates" : [43.0911293, -73.7678146],
        "city": "Saratoga Springs",
        "state": "NY",
        "zip_code": "12866",
        "phone_number": "518-581-0492",
        "url": "http://www.oldesaratogabrew.com"
    },
    {
        "type": "Attraction",
        "region": "North Country",
        "sub_region": "Greater Adirondacks Area &#40;Saratoga Springs, Lake Placid&#41;",
        "name": "Oscar's Adirondack Smokehouse",
        "address": "22 Raymond Lane",
        "coordinates" : [43.5011292, -73.7798004],
        "city": "Warrensburg",
        "state": "NY",
        "zip_code": "12885",
        "phone_number": "800-627-3431",
        "url": "http://www.oscarsadksmokehouse.com"
    },
    {
        "type": "Attraction",
        "region": "North Country",
        "sub_region": "Greater Adirondacks Area &#40;Saratoga Springs, Lake Placid&#41;",
        "name": "Saratoga Farmers Market",
        "address": "105 High Rock Avenue",
        "coordinates" : [43.0871692, -73.7794771],
        "city": "Saratoga Springs",
        "state": "NY",
        "zip_code": "12866",
        "phone_number": null,
        "url": "http://www.saratogafarmersmarket.org"
    },
    {
        "type": "Attraction",
        "region": "North Country",
        "sub_region": "Greater Adirondacks Area &#40;Saratoga Springs, Lake Placid&#41;",
        "name": "Saratoga Performing Arts Center",
        "address": "108 Avenue of the Pines",
        "coordinates" : [43.0574745, -73.80449],
        "city": "Saratoga Springs",
        "state": "NY",
        "zip_code": "12866",
        "phone_number": "518-584-9330",
        "url": "http://www.spac.org"
    },
    {
        "type": "Attraction",
        "region": "North Country",
        "sub_region": "Greater Adirondacks Area &#40;Saratoga Springs, Lake Placid&#41;",
        "name": "Saratoga Race Track",
        "address": "267 Union Ave",
        "coordinates" : [43.073785, -73.7634408],
        "city": "Saratoga Springs",
        "state": "NY",
        "zip_code": "12866",
        "phone_number": "518-584-6200",
        "url": "http://www.saratogaracetrack.com"
    },
    {
        "type": "Attraction",
        "region": "North Country",
        "sub_region": "Greater Adirondacks Area &#40;Saratoga Springs, Lake Placid&#41;",
        "name": "Willow Marsh Farm",
        "address": "343 Hop City Road",
        "coordinates" : [42.96978, -73.9255905],
        "city": "Ballston Spa",
        "state": "NY",
        "zip_code": "12020",
        "phone_number": "518-885-0310",
        "url": "http://www.willowmarshfarm.com"
    },
    {
        "type": "Attraction",
        "region": "Long Island",
        "sub_region": "Hamptons",
        "name": "Montauk Point State Park",
        "address": "2000 State Route 27",
        "coordinates" : [41.0056801, -72.0217819],
        "city": "Montauk",
        "state": "NY",
        "zip_code": "11954",
        "phone_number": "631-668-2544",
        "url": "http://www.nysparks.com/parks/61"
    },
    {
        "type": "Attraction",
        "region": "Long Island",
        "sub_region": "Hamptons",
        "name": "Parrish Art Museum",
        "address": "279 Montauk Highway",
        "coordinates" : [40.9038169, -72.3642953],
        "city": "Water Mill",
        "state": "NY",
        "zip_code": "11976",
        "phone_number": "631-283-7006",
        "url": "http://www.parrishart.org"
    },
    {
        "type": "Attraction",
        "region": "Hudson River Valley/Catskills",
        "sub_region": "HR East",
        "name": "Cold Spring Farmers Market at Boscobel House & Gardens",
        "address": "1601 Route 9D",
        "coordinates" : [41.4139784, -73.938105],
        "city": "Garrison",
        "state": "NY",
        "zip_code": "10524",
        "phone_number": null,
        "url": "http://www.csfarmmarket.org"
    },
    {
        "type": "Attraction",
        "region": "Hudson River Valley/Catskills",
        "sub_region": "HR East",
        "name": "Home of Franklin D. Roosevelt National Historic Site",
        "address": "4097 Albany Post Road",
        "coordinates" : [41.7704811,-73.9330215],
        "city": "Hyde Park",
        "state": "NY",
        "zip_code": "12538",
        "phone_number": "845-229-9115",
        "url": "http://www.nps.gov/hofr/"
    },
    {
        "type": "Attraction",
        "region": "Hudson River Valley/Catskills",
        "sub_region": "HR East",
        "name": "Olana State Historic Site",
        "address": "5720 State Route 9G",
        "coordinates" : [42.2195053, -73.8312454],
        "city": "Hudson",
        "state": "NY",
        "zip_code": "12534",
        "phone_number": "518-828-0135",
        "url": "http://www.olana.org"
    },
    {
        "type": "Attraction",
        "region": "Hudson River Valley/Catskills",
        "sub_region": "HR East",
        "name": "Omi International Art Center",
        "address": "1405 County Route 22",
        "coordinates" : [42.3321884, -73.6701013],
        "city": "Ghent",
        "state": "NY",
        "zip_code": "12075",
        "phone_number": "518-392-4747",
        "url": "http://www.artomi.org"
    },
    {
        "type": "Attraction",
        "region": "Hudson River Valley/Catskills",
        "sub_region": "HR East",
        "name": "Pleasantville Farmers Market",
        "address": "Memorial Plaza &#40;next to Metro North train station&#41;",
        "coordinates" : [41.1342, -73.792904],
        "city": "Pleasantville",
        "state": "NY",
        "zip_code": "10570",
        "phone_number": null,
        "url": "http://www.pleasantvillefarmersmarket.org"
    },
    {
        "type": "Attraction",
        "region": "Hudson River Valley/Catskills",
        "sub_region": "HR East",
        "name": "The Culinary Institute of America",
        "address": "1946 Campus Dr",
        "coordinates" : [41.7465172, -73.9330673],
        "city": "Hyde Park",
        "state": "NY",
        "zip_code": "12538",
        "phone_number": "845-452-9600",
        "url": "http://www.ciachef.edu"
    },
    {
        "type": "Attraction",
        "region": "Hudson River Valley/Catskills",
        "sub_region": "HR West",
        "name": "Bellvale Farms Creamery",
        "address": "1390 Route 17A",
        "coordinates" : [41.2312889, -74.2585526],
        "city": "Warwick",
        "state": "NY",
        "zip_code": "10990",
        "phone_number": "845-988-1818",
        "url": "http://www.bellvalefarms.com"
    },
    {
        "type": "Attraction",
        "region": "Hudson River Valley/Catskills",
        "sub_region": "HR West",
        "name": "Harriman State Park",
        "address": "Seven Lakes Dr / Bear Mountain Circle",
        "coordinates" : [41.1312485, -74.0670319],
        "city": "Ramapo",
        "state": "NY",
        "zip_code": "10974",
        "phone_number": "845-947-2444",
        "url": "http://www.nysparks.com/parks/145/details.aspx"
    },
    {
        "type": "Attraction",
        "region": "Hudson River Valley/Catskills",
        "sub_region": "HR West",
        "name": "Mohonk Preserve",
        "address": "3197 State Rte 55",
        "coordinates" : [41.734458, -74.185348],
        "city": "Gardiner",
        "state": "NY",
        "zip_code": "12525",
        "phone_number": "845-255-0919",
        "url": "http://www.mohonkpreserve.org"
    },
    {
        "type": "Attraction",
        "region": "Hudson River Valley/Catskills",
        "sub_region": "HR West",
        "name": "Ochs Orchard",
        "address": "4 Ochs Lane",
        "coordinates" : [41.2318573, -74.3693008],
        "city": "Warwick",
        "state": "NY",
        "zip_code": "10990",
        "phone_number": "845-986-1591",
        "url": "http://www.ochsorchard.net"
    },
    {
        "type": "Attraction",
        "region": "Hudson River Valley/Catskills",
        "sub_region": "HR West",
        "name": "Pennings Farm",
        "address": "161 State Rte 94 S",
        "coordinates" : [41.2362083, -74.3835951],
        "city": "Warwick",
        "state": "NY",
        "zip_code": "10990",
        "phone_number": "845-986-1059",
        "url": "http://www.penningsfarmmarket.com"
    },
    {
        "type": "Attraction",
        "region": "Hudson River Valley/Catskills",
        "sub_region": "HR West",
        "name": "Soons Orchards",
        "address": "23 Soons Circle",
        "coordinates" : [41.4025388, -74.4035842],
        "city": "New Hampton",
        "state": "NY",
        "zip_code": "10958",
        "phone_number": "845-374-5471",
        "url": "http://www.soonsorchards.com"
    },
    {
        "type": "Attraction",
        "region": "Hudson River Valley/Catskills",
        "sub_region": "HR West",
        "name": "Sterling Forest State Park",
        "address": "116 Old Forge Road",
        "coordinates" : [41.198701, -74.2549711],
        "city": "Tuxedo Park",
        "state": "NY",
        "zip_code": "10987",
        "phone_number": "845-351-5907",
        "url": "http://www.nysparks.com/parks/74/"
    },
    {
        "type": "Attraction",
        "region": "Hudson River Valley/Catskills",
        "sub_region": "HR West",
        "name": "Storm King Art Center",
        "address": "1 Museum Road",
        "coordinates" : [41.4281505, -74.0635217],
        "city": "New Windsor",
        "state": "NY",
        "zip_code": "12553",
        "phone_number": "845-534-3115",
        "url": "http://www.stormking.org"
    },
    {
        "type": "Attraction",
        "region": "Hudson River Valley/Catskills",
        "sub_region": "HR West",
        "name": "Thomas Cole Historic Site",
        "address": "218 Spring Street",
        "coordinates" : [42.2255821, -73.8610687],
        "city": "Catskill",
        "state": "NY",
        "zip_code": "12414",
        "phone_number": "518-943-7465",
        "url": "http://www.thomascole.org"
    },
    {
        "type": "Attraction",
        "region": "Hudson River Valley/Catskills",
        "sub_region": "HR West",
        "name": "Walkway Over the Hudson",
        "address": "87 Haviland Road",
        "coordinates" : [41.7100192, -73.9549881],
        "city": "Highland",
        "state": "NY",
        "zip_code": "12528",
        "phone_number": "845-834-2867",
        "url": "http://www.walkway.org"
    },
    {
        "type": "Attraction",
        "region": "Finger Lakes",
        "sub_region": "Keuka Lake",
        "name": "Glenn H. Curtiss Museum",
        "address": "8419 State Route 54",
        "coordinates" : [42.4001083,-77.2337036],
        "city": "Hammondsport",
        "state": "NY",
        "zip_code": "14840",
        "phone_number": "607-569-2160",
        "url": "http://www.glennhcurtissmuseum.org"
    },
    {
        "type": "Attraction",
        "region": "Finger Lakes",
        "sub_region": "Keuka Lake",
        "name": "Indian Pines Farm Market",
        "address": "2406 State Route 54A",
        "coordinates" : [42.6594124, -77.0675049],
        "city": "Penn Yan",
        "state": "NY",
        "zip_code": "14527",
        "phone_number": "315-536-3944",
        "url": null
    },
    {
        "type": "Attraction",
        "region": "Finger Lakes",
        "sub_region": "Keuka Lake",
        "name": "Windmill Farm & Craft Market",
        "address": "3900 State Route 14A",
        "coordinates" : [42.5735852, -77.0358485],
        "city": "Penn Yan",
        "state": "NY",
        "zip_code": "14527",
        "phone_number": "315-536-3032",
        "url": "http://www.thewindmill.com"
    },
    {
        "type": "Attraction",
        "region": "North Country",
        "sub_region": "Lake Champlain &#40;Chazy, Plattsburgh&#41;",
        "name": "Ausable Chasm",
        "address": "2144 Route 9",
        "coordinates" : [44.5256996, -73.4697876],
        "city": "Ausable Chasm",
        "state": "NY",
        "zip_code": "12911",
        "phone_number": "518-834-7454",
        "url": "http://www.ausablechasm.com"
    },
    {
        "type": "Attraction",
        "region": "North Country",
        "sub_region": "Lake Champlain &#40;Chazy, Plattsburgh&#41;",
        "name": "Babbie Rural & Farm Learning Museum",
        "address": "250 River Road",
        "coordinates" : [44.5687714, -73.5542374],
        "city": "Peru",
        "state": "NY",
        "zip_code": "12972",
        "phone_number": "518-643-8052",
        "url": "http://www.babbiemuseum.org"
    },
    {
        "type": "Attraction",
        "region": "North Country",
        "sub_region": "Lake Champlain &#40;Chazy, Plattsburgh&#41;",
        "name": "Parker's Family Maple Farm",
        "address": "1043 Slosson Road",
        "coordinates" : [44.8353462, -73.5374832],
        "city": "West Chazy",
        "state": "NY",
        "zip_code": "12992",
        "phone_number": "518-493-6761",
        "url": "http://www.parkerfamilymaple.com"
    },
    {
        "type": "Attraction",
        "region": "North Country",
        "sub_region": "Lake Champlain &#40;Chazy, Plattsburgh&#41;",
        "name": "Plattsburgh Farmers & Crafters Market",
        "address": "Durkee Street Pavilion",
        "coordinates" : [44.696359, -73.452348],
        "city": "Plattsburgh",
        "state": "NY",
        "zip_code": "12901",
        "phone_number": "518-493-6761",
        "url": "http://www.plattsburghfarmersmarket.com"
    },
    {
        "type": "Attraction",
        "region": "North Country",
        "sub_region": "Lake Champlain &#40;Chazy, Plattsburgh&#41;",
        "name": "Rulfs Orchard",
        "address": "531 Bear Swamp Road",
        "coordinates" : [44.5787735, -73.496109],
        "city": "Peru",
        "state": "NY",
        "zip_code": "12972",
        "phone_number": "518-643-8636",
        "url": "http://www.rulfsorchard.com"
    },
    {
        "type": "Attraction",
        "region": "North Country",
        "sub_region": "Lake Champlain &#40;Chazy, Plattsburgh&#41;",
        "name": "The Kayak Shack",
        "address": "498 Route 3",
        "coordinates" : [44.6963431, -73.4968071],
        "city": "Plattsburgh",
        "state": "NY",
        "zip_code": "12901",
        "phone_number": "518-566-0505",
        "url": "http://www.kayak-shack.com"
    },
    {
        "type": "Attraction",
        "region": "New York City",
        "sub_region": "Manhattan",
        "name": "Statue of Liberty",
        "address": "Liberty Island",
        "coordinates" : [40.7029419,-74.0143738],
        "city": "New York",
        "state": "NY",
        "zip_code": "10004",
        "phone_number": "212-363-3200",
        "url": "http://www.nps.gov/stli"
    },
    {
        "type": "Attraction",
        "region": "Long Island",
        "sub_region": "North Fork",
        "name": "Catapano Dairy Farm",
        "address": "33705 North Road",
        "coordinates" : [41.0843086, -72.4186172],
        "city": "Peconic",
        "state": "NY",
        "zip_code": "11958",
        "phone_number": "631-765-8042",
        "url": "http://www.catapanodairyfarm.com"
    },
    {
        "type": "Attraction",
        "region": "Long Island",
        "sub_region": "North Fork",
        "name": "Garden of Eve Organic Farm & Market",
        "address": "4558 Sound Avenue",
        "coordinates" : [40.9677447, -72.6486886],
        "city": "Riverhead",
        "state": "NY",
        "zip_code": "11901",
        "phone_number": "631-722-8777",
        "url": "http://www.gardenofevefarm.com"
    },
    {
        "type": "Attraction",
        "region": "Long Island",
        "sub_region": "North Fork",
        "name": "Greenport Harbor Brewing Company",
        "address": "234 Carpenter Street",
        "coordinates" : [41.1031439, -72.3584904],
        "city": "Greenport",
        "state": "NY",
        "zip_code": "11944",
        "phone_number": "631-477-6681",
        "url": "http://www.greenportharborbrewing.com"
    },
    {
        "type": "Attraction",
        "region": "Long Island",
        "sub_region": "North Fork",
        "name": "Harbes Family Farm",
        "address": "715 Sound Aveue",
        "coordinates" : [40.989265, -72.581352],
        "city": "Mattituck",
        "state": "Ny",
        "zip_code": "11952",
        "phone_number": "631-298-0700",
        "url": "http://www.harbesfamilyfarm.com"
    },
    {
        "type": "Attraction",
        "region": "Long Island",
        "sub_region": "North Fork",
        "name": "Long Island Aquarium & Exhibition Center",
        "address": "431 East Main Street",
        "coordinates" : [40.9186522, -72.6565334],
        "city": "Riverhead",
        "state": "NY",
        "zip_code": "11901",
        "phone_number": "631-208-9200",
        "url": "http://www.longislandaquarium.com"
    },
    {
        "type": "Attraction",
        "region": "Long Island",
        "sub_region": "North Fork",
        "name": "Long Island Spirits Craft Distillery",
        "address": "2182 Sound Avenue",
        "coordinates" : [40.957531, -72.7351074],
        "city": "Baiting Hollow",
        "state": "NY",
        "zip_code": "11933",
        "phone_number": "631-630-9322",
        "url": "http://www.lispirits.com"
    },
    {
        "type": "Attraction",
        "region": "Long Island",
        "sub_region": "North Fork",
        "name": "Schmitt’s Farm Stand on Sound",
        "address": "3355 Sound Avenue",
        "coordinates" : [40.9666966, -72.7039321],
        "city": "Riverhead",
        "state": "NY",
        "zip_code": "11901",
        "phone_number": "631-807-9420",
        "url": "http://www.schmittfamilyfarm.com"
    },
    {
        "type": "Attraction",
        "region": "Finger Lakes",
        "sub_region": "Owasco Lake",
        "name": "Harriet Tubman Home",
        "address": "180 South Street",
        "coordinates" : [42.912892, -76.5646715],
        "city": "Auburn",
        "state": "NY",
        "zip_code": "13021",
        "phone_number": "315-252-2081",
        "url": "http://www.harriethouse.org"
    },
    {
        "type": "Attraction",
        "region": "Finger Lakes",
        "sub_region": "Owasco Lake",
        "name": "Merry-Go-Round Playhouse",
        "address": "6877 East Lake Road",
        "coordinates" : [42.9038034, -76.5359739],
        "city": "Auburn",
        "state": "NY",
        "zip_code": "13021",
        "phone_number": "800-457-8897",
        "url": "http://www.fingerlakesmtf.com"
    },
    {
        "type": "Attraction",
        "region": "Finger Lakes",
        "sub_region": "Owasco Lake",
        "name": "Seward House Historic Museum",
        "address": "33 South St.",
        "coordinates" : [42.9293251, -76.5665207],
        "city": "Auburn",
        "state": "NY",
        "zip_code": "13021",
        "phone_number": "315-252-1283",
        "url": "http://www.sewardhouse.org"
    },
    {
        "type": "Attraction",
        "region": "New York City",
        "sub_region": "Queens",
        "name": "Mets - Citi Field",
        "address": "123-01 Roosevelt Avenue",
        "coordinates" : [40.7548128, -73.8451738],
        "city": "New York",
        "state": "NY",
        "zip_code": "11368",
        "phone_number": "718-507-6387",
        "url": "http://www.newyork.mets.mlb.com"
    },
    {
        "type": "Attraction",
        "region": "New York City",
        "sub_region": "Queens",
        "name": "Queens County Farm Museum",
        "address": "73-50 Little Neck Parkway",
        "coordinates" : [40.7280998, -73.7106094],
        "city": "Floral Park",
        "state": "NY",
        "zip_code": "11004",
        "phone_number": "718-347-3276",
        "url": "http://www.queensfarm.org"
    },
    {
        "type": "Attraction",
        "region": "Finger Lakes",
        "sub_region": "Seneca Lake",
        "name": "Climbing Bines Craft Ale Company",
        "address": "511 Hanson Point Rd",
        "coordinates" : [42.6597183, -76.9376005],
        "city": "Penn Yan",
        "state": "NY",
        "zip_code": "14527",
        "phone_number": "607-745-0221",
        "url": "http://www.climbingbineshopfarm.com"
    },
    {
        "type": "Attraction",
        "region": "Finger Lakes",
        "sub_region": "Seneca Lake",
        "name": "Corning Museum of Glass",
        "address": "1 Museum Way",
        "coordinates" : [42.1488534, -77.0538991],
        "city": "Corning",
        "state": "NY",
        "zip_code": "14830",
        "phone_number": "607-937-5371",
        "url": "http://www.cmog.org"
    },
    {
        "type": "Attraction",
        "region": "Finger Lakes",
        "sub_region": "Seneca Lake",
        "name": "Finger Lakes Distilling",
        "address": "4676 State Route 414",
        "coordinates" : [42.4595299, -76.8638992],
        "city": "Burdett",
        "state": "NY",
        "zip_code": "14818",
        "phone_number": "607-546-5510",
        "url": "fingerlakesdistilling.com"
    },
    {
        "type": "Attraction",
        "region": "Finger Lakes",
        "sub_region": "Seneca Lake",
        "name": "Red Jacket Orchards",
        "address": "957 Rte 5 & 20",
        "coordinates" : [42.8577297, -77.0216482],
        "city": "Geneva",
        "state": "NY",
        "zip_code": "14456",
        "phone_number": "315-781-2749",
        "url": "redjacketorchards.com"
    },
    {
        "type": "Attraction",
        "region": "Finger Lakes",
        "sub_region": "Seneca Lake",
        "name": "Watkins Glen International",
        "address": "2790 County Route 16",
        "coordinates" : [42.3472872, -76.9236671],
        "city": "Watkins Glen",
        "state": "NY",
        "zip_code": "14891",
        "phone_number": "607-535-2486",
        "url": "http://www.theglen.com"
    },
    {
        "type": "Attraction",
        "region": "Finger Lakes",
        "sub_region": "Seneca Lake",
        "name": "Watkins Glen State Park",
        "address": "1009 N Franklin St",
        "coordinates" : [42.3761632, -76.8711669],
        "city": "Watkins Glen",
        "state": "NY",
        "zip_code": "14891",
        "phone_number": "607-535-4511",
        "url": "http://www.nysparks.com"
    },
    {
        "type": "Attraction",
        "region": "Finger Lakes",
        "sub_region": "Skaneateles Lake",
        "name": "Mid-Lakes Navigation Lake & Canal Cruises",
        "address": "11 Jordan St.",
        "coordinates" : [42.9461715, -76.4291932],
        "city": "Skaneateles",
        "state": "NY",
        "zip_code": "13152",
        "phone_number": "315-685-8500",
        "url": "http://www.midlakesnav.com"
    },
    {
        "type": "Attraction",
        "region": "North Country",
        "sub_region": "Thousand Islands",
        "name": "1000 Islands River Rat Cheese",
        "address": "242 James Street",
        "coordinates" : [44.24086, -76.0888367],
        "city": "Clayton",
        "state": "NY",
        "zip_code": "13624",
        "phone_number": "800-752-1341",
        "url": "http://www.riverratcheese.net"
    },
    {
        "type": "Attraction",
        "region": "North Country",
        "sub_region": "Thousand Islands",
        "name": "Antique Boat Museum",
        "address": "750 Mary Street",
        "coordinates" : [44.2382622, -76.0893021],
        "city": "Clayton",
        "state": "NY",
        "zip_code": "13624",
        "phone_number": "315-686-4104",
        "url": "http://www.abm.org"
    },
    {
        "type": "Attraction",
        "region": "North Country",
        "sub_region": "Thousand Islands",
        "name": "Boldt Castle",
        "address": "1 Heart Island",
        "coordinates" : [44.3333702, -75.9109421],
        "city": "Alexandria Bay",
        "state": "NY",
        "zip_code": "13607",
        "phone_number": "315-482-9723",
        "url": "http://www.boldtcastle.com"
    },
    {
        "type": "Attraction",
        "region": "North Country",
        "sub_region": "Thousand Islands",
        "name": "Singer Castle",
        "address": "Dark Island",
        "coordinates" : [44.4388618, -75.6994324],
        "city": "Hammond",
        "state": "NY",
        "zip_code": "13646",
        "phone_number": "315-324-3275",
        "url": "http://www.singercastle.com"
    },
    {
        "type": "Attraction",
        "region": "North Country",
        "sub_region": "Thousand Islands",
        "name": "Uncle Sam Boat Tours",
        "address": "45 James Street",
        "coordinates" : [44.3388748, -75.9174957],
        "city": "Alexandria Bay",
        "state": "NY",
        "zip_code": "13607",
        "phone_number": "315&#41;482-2611",
        "url": "http://www.usboattours.com"
    },
    {
        "type": "Attraction",
        "region": "North Country",
        "sub_region": "Thousand Islands",
        "name": "Watertown Farm & Craft Market",
        "address": "Washington Street",
        "coordinates" : [43.9645119, -75.9128265],
        "city": "Watertown",
        "state": "NY",
        "zip_code": "13601",
        "phone_number": "315-788-4400",
        "url": "http://www.watertownfarmersmarket.weebly.com"
    },
    {
        "type": "Attraction",
        "region": "Lake Ontario",
        "sub_region": "",
        "name": "Apple Country Spirits",
        "address": "3274 Eddy Road",
        "coordinates" : [43.2020147, -77.2237775],
        "city": "Williamson",
        "state": "NY",
        "zip_code": "14589",
        "phone_number": "315-589-8733",
        "url": "http://www.applecountyspirits.com"
    },
    {
        "type": "Attraction",
        "region": "Niagara Escarpment/Greater Niagara Area",
        "sub_region": "",
        "name": "Becker Farms",
        "address": "3724 Quaker Road",
        "coordinates" : [43.2198181, -78.5427856],
        "city": "Gasport",
        "state": "NY",
        "zip_code": "14067",
        "phone_number": "716-772-2211",
        "url": "http://www.beckerfarms.com"
    },
    {
        "type": "Attraction",
        "region": "Central New York",
        "sub_region": "",
        "name": "Brewery Ommegang",
        "address": "656 County Highway 23",
        "coordinates" : [42.8158564, -75.091827],
        "city": "Cooperstown",
        "state": "NY",
        "zip_code": "13326",
        "phone_number": "607-544-1800",
        "url": "http://www.ommegang,com"
    },
    {
        "type": "Attraction",
        "region": "Lake Ontario",
        "sub_region": "",
        "name": "Burnap's Farm Market",
        "address": "7277 Maple Avenue",
        "coordinates" : [43.2637417, -77.0639057],
        "city": "Sodus",
        "state": "NY",
        "zip_code": "14551",
        "phone_number": "315-483-4050",
        "url": "http://www.burnapsfarm.com"
    },
    {
        "type": "Attraction",
        "region": "Central New York",
        "sub_region": "",
        "name": "Butternuts Beet & Ale",
        "address": "4021 State Highway 51",
        "coordinates" : [42.6236801, -75.1949158],
        "city": "Garrattsville",
        "state": "NY",
        "zip_code": "13342",
        "phone_number": "607-263-5070",
        "url": "http://www.butternutsbeerandale.com"
    },
    {
        "type": "Attraction",
        "region": "Lake Erie",
        "sub_region": "",
        "name": "Chautauqua Institution",
        "address": "One Ames Palza",
        "coordinates" : [42.2099233, -79.4666279],
        "city": "Chautauqua",
        "state": "NY",
        "zip_code": "14722",
        "phone_number": "800-836-ARTS",
        "url": "http://www.ciweb.org"
    },
    {
        "type": "Attraction",
        "region": "Central New York",
        "sub_region": "",
        "name": "Cooperstown Brewing Company",
        "address": "110 River Street",
        "coordinates" : [42.5888252, -74.9410095],
        "city": "Milford",
        "state": "NY",
        "zip_code": "13807",
        "phone_number": "877-FINEALE",
        "url": "http://www.cooperstownbrewing.com"
    },
    {
        "type": "Attraction",
        "region": "Central New York",
        "sub_region": "",
        "name": "Cooperstown Distillery",
        "address": "11 Railroad Avenue",
        "coordinates" : [42.6996658, -74.932076],
        "city": "Cooperstown",
        "state": "NY",
        "zip_code": "13326",
        "phone_number": "607-282-4246",
        "url": "http://www.cooperstowndistillery.com"
    },
    {
        "type": "Attraction",
        "region": "Central New York",
        "sub_region": "",
        "name": "Fenimore Art Museum",
        "address": "5798 State Highway 80",
        "coordinates" : [42.7161369,-74.9265137],
        "city": "Cooperstown",
        "state": "NY",
        "zip_code": "13326",
        "phone_number": "888-547-1450",
        "url": "http://www.fenimoreartmuseum.org"
    },
    {
        "type": "Attraction",
        "region": "Central New York",
        "sub_region": "",
        "name": "Glimmerglass Festival",
        "address": "7300 State Highway 80",
        "coordinates" : [42.8086607,-74.9023651],
        "city": "Cooperstown",
        "state": "NY",
        "zip_code": "13326",
        "phone_number": "607-547-2255",
        "url": "http://www.glimmerglass.org"
    },
    {
        "type": "Attraction",
        "region": "Lake Erie",
        "sub_region": "",
        "name": "Grape Discovery Center",
        "address": "8305 Main Road",
        "coordinates" : [42.3101883, -79.5979309],
        "city": "Westfield",
        "state": "NY",
        "zip_code": "14787",
        "phone_number": "716-326-2003",
        "url": "http://www.grapediscoverycenter.com"
    },
    {
        "type": "Attraction",
        "region": "Central New York",
        "sub_region": "",
        "name": "Howe Caverns",
        "address": "255 Discovery Drive",
        "coordinates" : [42.6954651, -74.4008865],
        "city": "Howes Cave",
        "state": "NY",
        "zip_code": "12092",
        "phone_number": "518-296-8900",
        "url": "http://www.howecaverns.com"
    },
    {
        "type": "Attraction",
        "region": "Lake Ontario",
        "sub_region": "",
        "name": "Lagoner Farms",
        "address": "6895 Lake Avenue",
        "coordinates" : [43.2481842, -77.1917191],
        "city": "Williamson",
        "state": "NY",
        "zip_code": "14589",
        "phone_number": "315-589-4899",
        "url": "http://www.lagonerfarms.com"
    },
    {
        "type": "Attraction",
        "region": "Niagara Escarpment/Greater Niagara Area",
        "sub_region": "",
        "name": "Lockport Cave & Underground Boat Ride",
        "address": "5 Gooding Street",
        "coordinates" : [43.1727638, -78.6918411],
        "city": "Lockport",
        "state": "NY",
        "zip_code": "14094",
        "phone_number": "716-438-0174",
        "url": "http://www.lockportcave.com"
    },
    {
        "type": "Attraction",
        "region": "Niagara Escarpment/Greater Niagara Area",
        "sub_region": "",
        "name": "Lockport Locks & Erie Canal Cruises",
        "address": "210 Market Street",
        "coordinates" : [43.1752625, -78.6872253],
        "city": "Lockport",
        "state": "NY",
        "zip_code": "14094",
        "phone_number": "716-433-6155",
        "url": "http://www.lockportlocks.com"
    },
    {
        "type": "Attraction",
        "region": "Lake Ontario",
        "sub_region": "",
        "name": "Long Acre Farms",
        "address": "1342 Eddy Road",
        "coordinates" : [43.1162162,-77.3132184],
        "city": "Macedon",
        "state": "NY",
        "zip_code": "14502",
        "phone_number": "315-986-4202",
        "url": "http://www.longacrefarms.com"
    },
    {
        "type": "Attraction",
        "region": "Lake Erie",
        "sub_region": "",
        "name": "Lucy Desi Museum & Center for Comedy",
        "address": "2 West Third Street",
        "coordinates" : [42.0963465,-79.2414531],
        "city": "Jamestown",
        "state": "NY",
        "zip_code": "14701",
        "phone_number": "716-484-0800",
        "url": "http://www.lucy-desi.com"
    },
    {
        "type": "Attraction",
        "region": "Niagara Escarpment/Greater Niagara Area",
        "sub_region": "",
        "name": "Maid of the Mist",
        "address": "1 Prospect Street",
        "coordinates" : [43.0862389, -79.0647278],
        "city": "Niagara Falls",
        "state": "NY",
        "zip_code": "14303",
        "phone_number": "716-284-8897",
        "url": "http://www.maidofthemist.com"
    },
    {
        "type": "Attraction",
        "region": "Lake Ontario",
        "sub_region": "",
        "name": "Morgan's Farm Market",
        "address": "3821 Coy Corners Road",
        "coordinates" : [43.1457558, -77.2230988],
        "city": "Marion",
        "state": "NY",
        "zip_code": "14505",
        "phone_number": "315-926-0910",
        "url": "http://www.morgansfarmmarket.com"
    },
    {
        "type": "Attraction",
        "region": "Central New York",
        "sub_region": "",
        "name": "National Baseball Hall of Fame",
        "address": "25 Main Street",
        "coordinates" : [42.6998291, -74.922966],
        "city": "Cooperstown",
        "state": "NY",
        "zip_code": "13326",
        "phone_number": "888-425-5633",
        "url": "http://www.baseballhall.org"
    },
    {
        "type": "Attraction",
        "region": "Niagara Escarpment/Greater Niagara Area",
        "sub_region": "",
        "name": "Niagara Falls State Park",
        "address": "332 Prospect Street",
        "coordinates" : [43.0867843, -79.064715],
        "city": "Niagara Falls",
        "state": "NY",
        "zip_code": "14303",
        "phone_number": "716-278-1796",
        "url": "http://www.niagarafallsstatepark.com"
    },
    {
        "type": "Attraction",
        "region": "Niagara Escarpment/Greater Niagara Area",
        "sub_region": "",
        "name": "Olcott Carousel Park",
        "address": "5979 Main Street",
        "coordinates" : [43.3384056, -78.7134628],
        "city": "Olcott",
        "state": "NY",
        "zip_code": "14126",
        "phone_number": "716-778-7066",
        "url": "http://www.olcottbeachcarouselpark.org"
    },
    {
        "type": "Attraction",
        "region": "Niagara Escarpment/Greater Niagara Area",
        "sub_region": "",
        "name": "Old Fort Niagara",
        "address": "",
        "coordinates" : [43.2503891, -79.0477219],
        "city": "Youngstown",
        "state": "NY",
        "zip_code": "14174",
        "phone_number": "716-745-7611",
        "url": "http://www.oldfortniagara.org"
    },
    {
        "type": "Attraction",
        "region": "Lake Erie",
        "sub_region": "",
        "name": "Panama Rocks Scenic Park",
        "address": "11 Rock Hill Road",
        "coordinates" : [42.0733376, -79.4880447],
        "city": "Panama",
        "state": "NY",
        "zip_code": "14767",
        "phone_number": "716-782-2845",
        "url": "http://www.panamarocks.com"
    },
    {
        "type": "Attraction",
        "region": "Lake Erie",
        "sub_region": "",
        "name": "Roger Tory Peterson Institute of Natural History",
        "address": "311 Curtis Street",
        "coordinates" : [42.1165314, -79.2229004],
        "city": "Jamestown",
        "state": "NY",
        "zip_code": "14701",
        "phone_number": "716-665-2473",
        "url": "http://www.rtpi.org"
    },
    {
        "type": "Attraction",
        "region": "Central New York",
        "sub_region": "",
        "name": "The Farmers' Museum",
        "address": "5775 State Highway 80",
        "coordinates" : [42.7119904, -74.9301834],
        "city": "Cooperstown",
        "state": "NY",
        "zip_code": "13326",
        "phone_number": "888-547-1450",
        "url": "http://www.farmersmuseum.org"
    },
    {
        "type": "Attraction",
        "region": "Niagara Escarpment/Greater Niagara Area",
        "sub_region": "",
        "name": "Whirlpool Jet Boat Tours",
        "address": "115 South Water Street",
        "coordinates" : [43.1725922, -79.0493622],
        "city": "Lewiston",
        "state": "NY",
        "zip_code": "14092",
        "phone_number": "905-468-4800",
        "url": "http://www.whirlpooljet.com"
    },
    {
        "type": "Hotel",
        "region": "Finger Lakes",
        "sub_region": "Canandaigua Lake",
        "name": "Bristol Harbour Resort",
        "address": "5410 Seneca Point Road",
        "coordinates" : [42.7571831, -77.3412323],
        "city": "Canandaigua",
        "state": "NY",
        "zip_code": "14424",
        "phone_number": "800-288-8248",
        "url": "http://www.bristolharbour.com"
    },
    {
        "type": "Hotel",
        "region": "Finger Lakes",
        "sub_region": "Canandaigua Lake",
        "name": "The Historic Naples Hotel",
        "address": "111 South Main Street",
        "coordinates" : [42.6148567,-77.4032593],
        "city": "Naples",
        "state": "NY",
        "zip_code": "14512",
        "phone_number": "585-374-5630",
        "url": "http://www.napleshotelny.com"
    },
    {
        "type": "Hotel",
        "region": "Finger Lakes",
        "sub_region": "Canandaigua Lake",
        "name": "The Inn on the Lake Resort & Conference Center",
        "address": "770 South Main Street",
        "coordinates" : [42.8766219, -77.2734949],
        "city": "Canandaigua",
        "state": "NY",
        "zip_code": "14424",
        "phone_number": "585-394-7800",
        "url": "http://www.theinnonthelake.com"
    },
    {
        "type": "Hotel",
        "region": "Finger Lakes",
        "sub_region": "Cayuga Lake",
        "name": "Taughannock Farms Inn",
        "address": "2030 Gorge Road",
        "coordinates" : [42.5439609, -76.5971249],
        "city": "Trumansburg",
        "state": "NY",
        "zip_code": "14886",
        "phone_number": "888-387-7711",
        "url": "http://www.t-farms.com"
    },
    {
        "type": "Hotel",
        "region": "Finger Lakes",
        "sub_region": "Cayuga Lake",
        "name": "The Gould Hotel",
        "address": "108 Fall Street",
        "coordinates" : [42.9105484, -76.7988706],
        "city": "Seneca Falls",
        "state": "NY",
        "zip_code": "13148",
        "phone_number": "877-788-4010",
        "url": "http://www.thegouldhotel.com"
    },
    {
        "type": "Hotel",
        "region": "Finger Lakes",
        "sub_region": "Cayuga Lake",
        "name": "The Inn at Varick Winery",
        "address": "5102 State Route 89",
        "coordinates" : [42.777411, -76.769774],
        "city": "Romulus",
        "state": "NY",
        "zip_code": "14541",
        "phone_number": "315-549-8797 ",
        "url": "http://www.varickwinery.com"
    },
    {
        "type": "Hotel",
        "region": "Finger Lakes",
        "sub_region": "Cayuga Lake",
        "name": "The Inns of Aurora",
        "address": "391 Main St",
        "coordinates" : [42.754508, -76.70314],
        "city": "Aurora",
        "state": "NY",
        "zip_code": "13026",
        "phone_number": "315-364-8888",
        "url": "http://www.innsofaurora.com"
    },
    {
        "type": "Hotel",
        "region": "Finger Lakes",
        "sub_region": "Conesus & Hemlock Lakes",
        "name": "Glen Iris Inn",
        "address": "7 Letchworth State Park",
        "coordinates" : [42.590982, -78.0626558],
        "city": "Castile",
        "state": "NY",
        "zip_code": "14424",
        "phone_number": "585-493-2622",
        "url": "http://www.glenirisinn.com"
    },
    {
        "type": "Hotel",
        "region": "Finger Lakes",
        "sub_region": "Conesus & Hemlock Lakes",
        "name": "Greenwoods Bed & Breakfast",
        "address": "8136 Quayle Road",
        "coordinates" : [42.8036443, -77.4839263],
        "city": "Honeoye",
        "state": "NY",
        "zip_code": "14471",
        "phone_number": "585-229-2111",
        "url": "http://www.greenwoodsinn.com"
    },
    {
        "type": "Hotel",
        "region": "North Country",
        "sub_region": "Greater Adirondacks Area &#40;Saratoga Springs, Lake Placid&#41;",
        "name": "Dovegate Inn",
        "address": "184 Broad St",
        "coordinates" : [43.1027641, -73.5793152],
        "city": "Schuylerville",
        "state": "NY",
        "zip_code": "12871",
        "phone_number": "518-695-3699",
        "url": "http://www.dovegateinn.com"
    },
    {
        "type": "Hotel",
        "region": "North Country",
        "sub_region": "Greater Adirondacks Area &#40;Saratoga Springs, Lake Placid&#41;",
        "name": "The Georgian Resort",
        "address": "384 Canada St",
        "coordinates" : [43.4290924, -73.7103653],
        "city": "Lake George",
        "state": "NY",
        "zip_code": "12845",
        "phone_number": "518-668-5401",
        "url": "http://www.georgianresort.com"
    },
    {
        "type": "Hotel",
        "region": "North Country",
        "sub_region": "Greater Adirondacks Area &#40;Saratoga Springs, Lake Placid&#41;",
        "name": "The Lake Motel",
        "address": "380 Canada St",
        "coordinates" : [43.4286804, -73.7105026],
        "city": "Lake George",
        "state": "NY",
        "zip_code": "12845",
        "phone_number": "518-668-2810",
        "url": "http://www.lakegeorgelakemotel.com"
    },
    {
        "type": "Hotel",
        "region": "North Country",
        "sub_region": "Greater Adirondacks Area &#40;Saratoga Springs, Lake Placid&#41;",
        "name": "The Lamplight B&B",
        "address": "231 Lake Ave",
        "coordinates" : [43.3194389, -73.8387985],
        "city": "Lake Luzerne",
        "state": "NY",
        "zip_code": "12846",
        "phone_number": "518-696-5294",
        "url": "http://www.lamplightinn.com"
    },
    {
        "type": "Hotel",
        "region": "Hudson River Valley/Catskills",
        "sub_region": "HR East",
        "name": "Inn at Silver Maple Farm",
        "address": "1871 State Route 295",
        "coordinates" : [42.4201393, -73.462944],
        "city": "East Chatham",
        "state": "NY",
        "zip_code": "12060",
        "phone_number": "518-781-3600",
        "url": "http://www.silvermaplefarm.com"
    },
    {
        "type": "Hotel",
        "region": "Hudson River Valley/Catskills",
        "sub_region": "HR East",
        "name": "Mount Merino Manor Bed and Breakfast",
        "address": "4317 State Route 23",
        "coordinates" : [42.224556, -73.8189468],
        "city": "Hudson",
        "state": "NY",
        "zip_code": "12534",
        "phone_number": "518-828-5583",
        "url": "http://www.mountmerinomanor.com"
    },
    {
        "type": "Hotel",
        "region": "Hudson River Valley/Catskills",
        "sub_region": "HR East",
        "name": "The Barlow",
        "address": "542 Warren Street",
        "coordinates" : [42.2487602, -73.7849579],
        "city": "Hudson",
        "state": "NY",
        "zip_code": "12534",
        "phone_number": "518-828-2100",
        "url": "http://www.thebarlowhotel.com"
    },
    {
        "type": "Hotel",
        "region": "Hudson River Valley/Catskills",
        "sub_region": "HR East",
        "name": "The Inn at Ca'Mea",
        "address": "333 Warren Street",
        "coordinates" : [42.2519608, -73.7902222],
        "city": "Hudson",
        "state": "NY",
        "zip_code": "12534",
        "phone_number": "518-303-6650",
        "url": "http://www.innatcamea.com"
    },
    {
        "type": "Hotel",
        "region": "Hudson River Valley/Catskills",
        "sub_region": "HR East",
        "name": "The Inn at Green River",
        "address": "9 Nobletown Road",
        "coordinates" : [42.2619171, -73.4729767],
        "city": "Hillsdale",
        "state": "NY",
        "zip_code": "12529",
        "phone_number": "518-325-7248",
        "url": "http://www.innatgreenriver.com"
    },
    {
        "type": "Hotel",
        "region": "Hudson River Valley/Catskills",
        "sub_region": "HR East",
        "name": "Thyme in the Country",
        "address": "671 Fish and Game Road",
        "coordinates" : [42.2501984, -73.6887207],
        "city": "Hudson",
        "state": "NY",
        "zip_code": "12534",
        "phone_number": "518-672-6166",
        "url": "·www.thymeinthecountrybandb.com"
    },
    {
        "type": "Hotel",
        "region": "Hudson River Valley/Catskills",
        "sub_region": "HR West",
        "name": "Bear Mountain Inn and Overlook Lodge",
        "address": "3020 Seven Lakes Drive",
        "coordinates" : [41.2571983, -73.9838181],
        "city": "Tomkins Cove",
        "state": "NY",
        "zip_code": "10986",
        "phone_number": "845-786-2731",
        "url": "http://www.visitbearmountain.com/bear-mountain-inn.htm"
    },
    {
        "type": "Hotel",
        "region": "Hudson River Valley/Catskills",
        "sub_region": "HR West",
        "name": "Buttermilk Falls Inn",
        "address": "220 North Road",
        "coordinates" : [41.6669603, -73.9559618],
        "city": "Milton",
        "state": "NY",
        "zip_code": "12547",
        "phone_number": "845-795-1310",
        "url": "http://www.buttermilkfallsinn.com"
    },
    {
        "type": "Hotel",
        "region": "Hudson River Valley/Catskills",
        "sub_region": "HR West",
        "name": "Glenmere Mansion",
        "address": "634 Pine Hill Road",
        "coordinates" : [41.3389626, -74.3233414],
        "city": "Chester",
        "state": "NY",
        "zip_code": "10918",
        "phone_number": "845-469-1919",
        "url": "http://www. glenmeremansion.com"
    },
    {
        "type": "Hotel",
        "region": "Hudson River Valley/Catskills",
        "sub_region": "HR West",
        "name": "Inn at Stony Creek",
        "address": "34 Spanktown Rd.",
        "coordinates" : [41.306855, -74.3903408],
        "city": "Warwick",
        "state": "NY",
        "zip_code": "10990",
        "phone_number": "845-986-3660",
        "url": "http://www.innstonycreek.com"
    },
    {
        "type": "Hotel",
        "region": "Hudson River Valley/Catskills",
        "sub_region": "HR West",
        "name": "Minnewaska Lodge",
        "address": "3116 State Route 55",
        "coordinates" : [41.7270874, -74.1929168],
        "city": "Gardiner",
        "state": "NY",
        "zip_code": "12525",
        "phone_number": "845-255-1110",
        "url": "http://www.minnewaskalodge.com"
    },
    {
        "type": "Hotel",
        "region": "Hudson River Valley/Catskills",
        "sub_region": "HR West",
        "name": "Mohonk Mountain House",
        "address": "1000 Mountain Rest Road",
        "coordinates" : [41.7787977, -74.1349275],
        "city": "New Paltz",
        "state": "NY",
        "zip_code": "12561",
        "phone_number": "845-765-3286",
        "url": "http://www.mohonk.com"
    },
    {
        "type": "Hotel",
        "region": "Hudson River Valley/Catskills",
        "sub_region": "HR West",
        "name": "Sleepy Valley Inn",
        "address": "117 Sleepy Valley Road",
        "coordinates" : [41.280262, -74.3711014],
        "city": "Warwick",
        "state": "NY",
        "zip_code": "10990",
        "phone_number": "845.986.STAY",
        "url": "http://www.sleepyvalleyinn.com"
    },
    {
        "type": "Hotel",
        "region": "Hudson River Valley/Catskills",
        "sub_region": "HR West",
        "name": "The Inn at Orchard Heights",
        "address": "20 Church St",
        "coordinates" : [41.7488136, -74.0844498],
        "city": "New Paltz",
        "state": "NY",
        "zip_code": "12561",
        "phone_number": "845-255-6792",
        "url": "http://www.innatorchardheights.com"
    },
    {
        "type": "Hotel",
        "region": "Finger Lakes",
        "sub_region": "Keuka Lake",
        "name": "Esperanza Mansion",
        "address": "3456 State Route 54A",
        "coordinates" : [42.5959589, -77.1315222],
        "city": "Keuka Park",
        "state": "NY",
        "zip_code": "14478",
        "phone_number": "315-536-4400",
        "url": "http://www.esperanzamansion.com"
    },
    {
        "type": "Hotel",
        "region": "Finger Lakes",
        "sub_region": "Keuka Lake",
        "name": "Steamboat Castle Bed & Breakfast",
        "address": "2893 West Lake Road",
        "coordinates" : [42.6320152, -77.0903168],
        "city": "Penn Yan",
        "state": "NY",
        "zip_code": "14527",
        "phone_number": "315-536-6759",
        "url": "http://www.steamboatcastle.com"
    },
    {
        "type": "Hotel",
        "region": "Finger Lakes",
        "sub_region": "Keuka Lake",
        "name": "Vinehurst Inn & Suites",
        "address": "7988 State Route 54",
        "coordinates" : [42.3961906, -77.2354813],
        "city": "Hammondsport",
        "state": "Ny",
        "zip_code": "14840",
        "phone_number": "607-569-2300",
        "url": "http://www.vinehurstinn.com"
    },
    {
        "type": "Hotel",
        "region": "North Country",
        "sub_region": "Lake Champlain &#40;Chazy, Plattsburgh&#41;",
        "name": "Au Bord du Lac Bed & Breakfast",
        "address": "250 Lake Street",
        "coordinates" : [44.9809418, -73.3641281],
        "city": "Rouses Point",
        "state": "NY",
        "zip_code": "12979",
        "phone_number": "518-593-3432",
        "url": "http://www.rousespointbnb.com"
    },
    {
        "type": "Hotel",
        "region": "North Country",
        "sub_region": "Lake Champlain &#40;Chazy, Plattsburgh&#41;",
        "name": "Comfort Inn & Suites",
        "address": "411 New York 3",
        "coordinates" : [44.6777992,-73.4510727],
        "city": "Plattsburgh",
        "state": "NY",
        "zip_code": "12901",
        "phone_number": "518-562-2730",
        "url": "http://www.plattsburghcomfortinn.com"
    },
    {
        "type": "Hotel",
        "region": "North Country",
        "sub_region": "Lake Champlain &#40;Chazy, Plattsburgh&#41;",
        "name": "La Quinta Inn & Suites",
        "address": "16 Plaza Blvd",
        "coordinates" : [44.6977348, -73.4965286],
        "city": "Plattsburgh",
        "state": "NY",
        "zip_code": "12901",
        "phone_number": "518-562-4000",
        "url": "http://www.laquintaplattsburgh.com"
    },
    {
        "type": "Hotel",
        "region": "North Country",
        "sub_region": "Lake Champlain &#40;Chazy, Plattsburgh&#41;",
        "name": "The Point Au Roche Lodge",
        "address": "463 Point Au Roche Road",
        "coordinates" : [44.7860641, -73.3829956],
        "city": "Plattsburgh",
        "state": "NY",
        "zip_code": "12901",
        "phone_number": "518-563-8714",
        "url": "http://www.pointaurochelodge.com"
    },
    {
        "type": "Hotel",
        "region": "Long Island",
        "sub_region": "North Fork",
        "name": "Cedar House on Sound B&B",
        "address": "4850 Sound Ave",
        "coordinates" : [40.9851952, -72.56353],
        "city": "Mattituck",
        "state": "NY",
        "zip_code": "11952",
        "phone_number": "631-298-7676",
        "url": "http://www.cedarhouseonsound.com"
    },
    {
        "type": "Hotel",
        "region": "Long Island",
        "sub_region": "North Fork",
        "name": "Hotel Indigo East End",
        "address": "1830 West Main Street",
        "coordinates" : [40.9179689, -72.7197799],
        "city": "Riverhead",
        "state": "NY",
        "zip_code": "11901",
        "phone_number": "631-369-2200",
        "url": "http://www.indigoeastend.com"
    },
    {
        "type": "Hotel",
        "region": "Long Island",
        "sub_region": "North Fork",
        "name": "Hyatt Place East End",
        "address": "451 East Main Street",
        "coordinates" : [40.9189016,-72.6559762],
        "city": "Riverhead",
        "state": "NY",
        "zip_code": "11901",
        "phone_number": "631-208-0002",
        "url": "http://www.hyattplaceeastend.com"
    },
    {
        "type": "Hotel",
        "region": "Long Island",
        "sub_region": "North Fork",
        "name": "Sannino Vineyard Bed and Breakfast",
        "address": "7490 Alvahs Lane",
        "coordinates" : [41.019742, -72.5113032],
        "city": "Cutchogue",
        "state": "NY",
        "zip_code": "11935",
        "phone_number": "631-734-8282",
        "url": "http://www.sanninovineyard.com"
    },
    {
        "type": "Hotel",
        "region": "Long Island",
        "sub_region": "North Fork",
        "name": "Shinn Estate Farmhouse",
        "address": "2000 Oregon Road",
        "coordinates" : [41.014534, -72.5326538],
        "city": "Mattituck",
        "state": "NY",
        "zip_code": "11952",
        "phone_number": "631-804-0367",
        "url": "http://www.shinnfarmhouse.com"
    },
    {
        "type": "Hotel",
        "region": "Finger Lakes",
        "sub_region": "Seneca Lake",
        "name": "Belhurst  Castle",
        "address": "4069 West Lake Road",
        "coordinates" : [42.8382669, -76.9786698],
        "city": "Geneva",
        "state": "NY",
        "zip_code": "14456",
        "phone_number": "315-781-0201",
        "url": "http://www.belhurst.com"
    },
    {
        "type": "Hotel",
        "region": "Finger Lakes",
        "sub_region": "Seneca Lake",
        "name": "New Vines Bed & Breakfast",
        "address": "1138 Travis Rd",
        "coordinates" : [42.7143555, -76.9851532],
        "city": "Penn Yan",
        "state": "NY",
        "zip_code": "14527",
        "phone_number": "315-536-4087",
        "url": "http://www.newvinesbb.com"
    },
    {
        "type": "Hotel",
        "region": "Finger Lakes",
        "sub_region": "Seneca Lake",
        "name": "The Inn at Chateau LaFayette Reneau",
        "address": "5081 State Route 414",
        "coordinates" : [42.4799862,-76.8696059],
        "city": "Hector",
        "state": "NY",
        "zip_code": "14841",
        "phone_number": "607-546-2062",
        "url": "http://www.clrwine.com"
    },
    {
        "type": "Hotel",
        "region": "Finger Lakes",
        "sub_region": "Seneca Lake",
        "name": "The Inn at Glenora Wine Cellars",
        "address": "5435 State Route 14",
        "coordinates" : [42.5005084, -76.9242766],
        "city": "Dundee",
        "state": "NY",
        "zip_code": "14837",
        "phone_number": "800-243-5513",
        "url": "http://www.glenora.com"
    },
    {
        "type": "Hotel",
        "region": "Finger Lakes",
        "sub_region": "Seneca Lake",
        "name": "The Inn at Miles Wine Cellars",
        "address": "168 Randall Crossing Rd",
        "coordinates" : [42.617045, -76.9223683],
        "city": "Himrod",
        "state": "Ny",
        "zip_code": "14842",
        "phone_number": "607-243-7742",
        "url": "http://www.mileswinecellars.com"
    },
    {
        "type": "Hotel",
        "region": "Finger Lakes",
        "sub_region": "Seneca Lake",
        "name": "Watkins Glen Harbor Hotel",
        "address": "16 N Franklin St",
        "coordinates" : [42.3832588, -76.8736725],
        "city": "Watkins Glen",
        "state": "NY",
        "zip_code": "14891",
        "phone_number": "607-535-6116",
        "url": "http://www.watkinsglenharborhotel.com"
    },
    {
        "type": "Hotel",
        "region": "Finger Lakes",
        "sub_region": "Skaneateles Lake",
        "name": "Packwood House",
        "address": "14 West Genesee Street",
        "coordinates" : [42.9458885, -76.4300842],
        "city": "Skaneateles",
        "state": "NY",
        "zip_code": "13152",
        "phone_number": "315-685-3405",
        "url": "http://www.packwoodhouse.com"
    },
    {
        "type": "Hotel",
        "region": "Finger Lakes",
        "sub_region": "Skaneateles Lake",
        "name": "Sherwood Inn",
        "address": "26 W. Genesee St.",
        "coordinates" : [42.9456863, -76.4313583],
        "city": "Skaneateles",
        "state": "NY",
        "zip_code": "13152",
        "phone_number": "315-685-3405",
        "url": "http://www.thesherwoodinn.com"
    },
    {
        "type": "Hotel",
        "region": "North Country",
        "sub_region": "Thousand Islands",
        "name": "1000 Islands Harbor Hotel",
        "address": "200 Riverside Drive",
        "coordinates" : [44.2425461, -76.0832291],
        "city": "Clayton",
        "state": "NY",
        "zip_code": "13624",
        "phone_number": "315-686-1100",
        "url": "http://www.1000islandsharborhotel.com"
    },
    {
        "type": "Hotel",
        "region": "North Country",
        "sub_region": "Thousand Islands",
        "name": "Bonnie Castle Resort",
        "address": "31 Holland Street",
        "coordinates" : [44.3419075, -75.9144135],
        "city": "Alexandria Bay",
        "state": "NY",
        "zip_code": "13607",
        "phone_number": "315-482-4511",
        "url": "http://www.bonniecastle.com"
    },
    {
        "type": "Hotel",
        "region": "North Country",
        "sub_region": "Thousand Islands",
        "name": "Captain Visger House Bed and Breakfast",
        "address": "2 Church Street",
        "coordinates" : [44.335537, -75.9167252],
        "city": "Alexandria Bay",
        "state": "NY",
        "zip_code": "13607",
        "phone_number": "315-681-3422",
        "url": "http://www.captainvisgerhouse.com"
    },
    {
        "type": "Hotel",
        "region": "North Country",
        "sub_region": "Thousand Islands",
        "name": "McKinley House Bed and Breakfast",
        "address": " 505 Hugunin Street",
        "coordinates" : [44.2411346, -76.0873871],
        "city": "Clayton",
        "state": "NY",
        "zip_code": "13624",
        "phone_number": "315-686-3518",
        "url": "http://www.mckinleyhousebnb.com"
    },
    {
        "type": "Hotel",
        "region": "North Country",
        "sub_region": "Thousand Islands",
        "name": "Riveredge Resort Hotel",
        "address": "17 Holland Street",
        "coordinates" : [44.3390846, -75.9155807],
        "city": "Alexandria Bay",
        "state": "NY",
        "zip_code": "13607",
        "phone_number": "800-365-6987",
        "url": "http://www.riveredgeresort.com"
    },
    {
        "type": "Hotel",
        "region": "Lake Erie",
        "sub_region": "",
        "name": "Athenaeum Hotel",
        "address": "3 South Lake Drive",
        "coordinates" : [42.2104523, -79.4633804],
        "city": "Chautauqua",
        "state": "NY",
        "zip_code": "14722",
        "phone_number": "800-821-1881",
        "url": "http://www.athenaeum-hotel.com"
    },
    {
        "type": "Hotel",
        "region": "Lake Erie",
        "sub_region": "",
        "name": "Barcelona Lakeside B & B",
        "address": "8223 E Lake Rd",
        "coordinates" : [42.340793, -79.594131],
        "city": "Westfield",
        "state": "NY",
        "zip_code": "14787",
        "phone_number": "716-326-3756",
        "url": "http://www.barcelonalakeside.com"
    },
    {
        "type": "Hotel",
        "region": "Niagara Escarpment/Greater Niagara Area",
        "sub_region": "",
        "name": "Barton Hill Hotel & Spa",
        "address": "100 Center Street",
        "coordinates" : [43.1734962,-79.0473022],
        "city": "Lewiston",
        "state": "NY",
        "zip_code": "14092",
        "phone_number": "716-754-9070",
        "url": "http://www.bartonhillhotel.com"
    },
    {
        "type": "Hotel",
        "region": "Lake Ontario",
        "sub_region": "",
        "name": "Bonnie Castle Farm Bed & Breakfast",
        "address": "6603 Bonnie Castle Road",
        "coordinates" : [43.2392632, -76.9346293],
        "city": "Wolcott",
        "state": "NY",
        "zip_code": "14590",
        "phone_number": "315-587-2273",
        "url": "http://www.bonniecastlefarmbb.com"
    },
    {
        "type": "Hotel",
        "region": "Niagara Escarpment/Greater Niagara Area",
        "sub_region": "",
        "name": "Brookins Inn & Suites",
        "address": "2697 Maple Avenue",
        "coordinates" : [43.2840849, -78.7073321],
        "city": "Newfane",
        "state": "NY",
        "zip_code": "14108",
        "phone_number": "716-870-6244",
        "url": "http://www.Brookinsinn.com"
    },
    {
        "type": "Hotel",
        "region": "Niagara Escarpment/Greater Niagara Area",
        "sub_region": "",
        "name": "DeFlippo’s Bed & Breakfast",
        "address": "326 West Avenue",
        "coordinates" : [43.1667824, -78.7072525],
        "city": "Lockport",
        "state": "NY",
        "zip_code": "14094",
        "phone_number": "716-433-2913",
        "url": "http://www.DeFlippos.com"
    },
    {
        "type": "Hotel",
        "region": "Lake Erie",
        "sub_region": "",
        "name": "Edwards Waterhouse Inn",
        "address": "71 Central Ave",
        "coordinates" : [42.4450684, -79.3330994],
        "city": "Fredonia",
        "state": "NY",
        "zip_code": "14063",
        "phone_number": "716-672-6751",
        "url": "http://www.edwardswaterhouseinn.com"
    },
    {
        "type": "Hotel",
        "region": "Niagara Escarpment/Greater Niagara Area",
        "sub_region": "",
        "name": "Four Points by Sheraton",
        "address": "7001 Buffalo Ave",
        "coordinates" : [43.0734863, -78.9834976],
        "city": "Niagara Falls",
        "state": "NY",
        "zip_code": "14304",
        "phone_number": "716-299-0344",
        "url": "http://www.fourpointsniagarafalls.com"
    },
    {
        "type": "Hotel",
        "region": "Niagara Escarpment/Greater Niagara Area",
        "sub_region": "",
        "name": "Hart House Hotel",
        "address": "113 W Center Street",
        "coordinates" : [43.2203469, -78.38771],
        "city": "Medina",
        "state": "NY",
        "zip_code": "14103",
        "phone_number": "585-735-6031",
        "url": "http://www.harthousehotel.com"
    },
    {
        "type": "Hotel",
        "region": "Niagara Escarpment/Greater Niagara Area",
        "sub_region": "",
        "name": "Holiday Inn Niagara Falls",
        "address": "114 Buffalo Avenue",
        "coordinates" : [43.0836754, -79.0611343],
        "city": "Niagara Falls",
        "state": "NY",
        "zip_code": "14303",
        "phone_number": "716-285-2521",
        "url": "http://www.hiniagarafalls.com"
    },
    {
        "type": "Hotel",
        "region": "Central New York",
        "sub_region": "",
        "name": "Lake Front Hotel",
        "address": "10 Fair Street",
        "coordinates" : [42.7022896, -74.9220352],
        "city": "Cooperstown",
        "state": "NY",
        "zip_code": "13326",
        "phone_number": "607-547-8188",
        "url": "http://www.lakefrontmotelandrestaurant.com"
    },
    {
        "type": "Hotel",
        "region": "Lake Ontario",
        "sub_region": "",
        "name": "Maxwell Creek Inn Bed & Breakfast",
        "address": "7563 Lake Road",
        "coordinates" : [43.2659187, -77.0244675],
        "city": "Sodus",
        "state": "NY",
        "zip_code": "14551",
        "phone_number": "315-483-2222",
        "url": "http://www.maxwellcreekinn-bnb.com"
    },
    {
        "type": "Hotel",
        "region": "Niagara Escarpment/Greater Niagara Area",
        "sub_region": "",
        "name": "Red Coach Inn",
        "address": "2 Buffalo Ave",
        "coordinates" : [43.0841243, -79.0632056],
        "city": "Niagara Falls",
        "state": "NY",
        "zip_code": "14303",
        "phone_number": "716-282-1459",
        "url": "http://www.redcoach.com"
    },
    {
        "type": "Hotel",
        "region": "Niagara Escarpment/Greater Niagara Area",
        "sub_region": "",
        "name": "Sheraton at the Falls",
        "address": "300 Third Street",
        "coordinates" : [43.0867424, -79.059845],
        "city": "Niagara Falls",
        "state": "NY",
        "zip_code": "14304",
        "phone_number": "716-285-3361",
        "url": "http://www.sheratonatthefalls.com"
    },
    {
        "type": "Hotel",
        "region": "Lake Erie",
        "sub_region": "",
        "name": "St. Elmo at Chautauqua Institution",
        "address": "1 Pratt Avenue",
        "coordinates" : [42.2077762, -79.4644533],
        "city": "Chautauqua",
        "state": "NY",
        "zip_code": "14722",
        "phone_number": "716-357-3566",
        "url": "http://www.chautauquaarea.com/stelmo/stelmo.html"
    },
    {
        "type": "Hotel",
        "region": "Lake Erie",
        "sub_region": "",
        "name": "The Blue Heron Inn",
        "address": "10412 Main St.",
        "coordinates" : [42.1198845, -79.7352295],
        "city": "Findley Lake",
        "state": "NY",
        "zip_code": "14736",
        "phone_number": "716-769-7852",
        "url": "http://www.theblueheroninn.com"
    },
    {
        "type": "Hotel",
        "region": "Lake Ontario",
        "sub_region": "",
        "name": "The Cliffs at Sodus Point Bed & Breakfast",
        "address": "7961 Lake Road",
        "coordinates" : [43.2703438, -77.0051956],
        "city": "Sodus Point",
        "state": "NY",
        "zip_code": "14555",
        "phone_number": "315-483-4309",
        "url": "http://www.thecliffsatsoduspoint.com"
    },
    {
        "type": "Hotel",
        "region": "Niagara Escarpment/Greater Niagara Area",
        "sub_region": "",
        "name": "The Giacomo",
        "address": "222 First Street",
        "coordinates" : [43.0853615, -79.061882],
        "city": "Niagara Falls",
        "state": "NY",
        "zip_code": "14303",
        "phone_number": "716-299-0200",
        "url": "http://www.thegiacomo.com"
    },
    {
        "type": "Hotel",
        "region": "Lake Erie",
        "sub_region": "",
        "name": "The Great Tree Inn Bed & Breakfast",
        "address": "6642 East Lake Road",
        "coordinates" : [42.2647972,-79.4928513],
        "city": "Mayville",
        "state": "NY",
        "zip_code": "14757",
        "phone_number": "716-753-7989",
        "url": "http://www.greattreeinn.com"
    },
    {
        "type": "Hotel",
        "region": "Central New York",
        "sub_region": "",
        "name": "The Inn at Cooperstown",
        "address": "16 Chestnut Street",
        "coordinates" : [42.7016296, -74.9269791],
        "city": "Cooperstown",
        "state": "NY",
        "zip_code": "13326",
        "phone_number": "607-547-5756",
        "url": "http://www.innatcooperstown.com"
    },
    {
        "type": "Hotel",
        "region": "Lake Erie",
        "sub_region": "",
        "name": "The Spencer Hotel & Spa",
        "address": "25 Palestine Ave",
        "coordinates" : [42.2075539, -79.4651871],
        "city": "Chautauqua",
        "state": "NY",
        "zip_code": "14722",
        "phone_number": "716-357-3785",
        "url": "http://www.thespencer.com"
    },
    {
        "type": "Hotel",
        "region": "Lake Erie",
        "sub_region": "",
        "name": "The William Seward Inn",
        "address": "6645 South Portage Road",
        "coordinates" : [42.2932014, -79.5510254],
        "city": "Westfield",
        "state": "NY",
        "zip_code": "14787",
        "phone_number": "716-326-4151",
        "url": "http://www.williamsewardinn.net"
    },
    {
        "type": "Hotel",
        "region": "Lake Erie",
        "sub_region": "",
        "name": "White Inn",
        "address": "52 E Main St",
        "coordinates" : [42.4425087, -79.3295593],
        "city": "Fredonia",
        "state": "NY",
        "zip_code": "14063",
        "phone_number": "716-672-2103",
        "url": "http://www.whiteinn.com"
    },
    {
        "type": "Hotel",
        "region": "Niagara Escarpment/Greater Niagara Area",
        "sub_region": "",
        "name": "Wilson House Restaurant & Inn",
        "address": "300 Lake St",
        "coordinates" : [43.3095022, -78.825991],
        "city": "Wilson",
        "state": "NY",
        "zip_code": "14172",
        "phone_number": "716-751-9888",
        "url": "http://www.thewilsonhouserestaurant.com"
    },
    {
        "type": "Restaurant",
        "region": "New York City",
        "sub_region": "Brooklyn",
        "name": "Colonie",
        "address": "127 Atlantic Ave",
        "coordinates" : [40.6908951, -73.9957962],
        "city": "Brooklyn",
        "state": "NY",
        "zip_code": "11201",
        "phone_number": "718-855-7500",
        "url": "http://www.colonienyc.com"
    },
    {
        "type": "Restaurant",
        "region": "New York City",
        "sub_region": "Brooklyn",
        "name": "Dino",
        "address": "222 Dekalb Ave",
        "coordinates" : [40.689312, -73.9704742],
        "city": "Brooklyn",
        "state": "NY",
        "zip_code": "11205",
        "phone_number": "718-222-1999",
        "url": "http://www.dinorestaurantny.com"
    },
    {
        "type": "Restaurant",
        "region": "New York City",
        "sub_region": "Brooklyn",
        "name": "Henry Public",
        "address": "329 Henry Street",
        "coordinates" : [40.6902542, -73.9961777],
        "city": "Brooklyn",
        "state": "NY",
        "zip_code": "11201",
        "phone_number": "718-852-8630 ",
        "url": "http://www.henrypublic.com"
    },
    {
        "type": "Restaurant",
        "region": "New York City",
        "sub_region": "Brooklyn",
        "name": "Humboldt & Jaclson",
        "address": "434 Humboldt Street",
        "coordinates" : [40.7169418, -73.9428253],
        "city": "Brooklyn",
        "state": "NY",
        "zip_code": "11211",
        "phone_number": "718-349-3355",
        "url": "http://www.humboldtandjackson.com"
    },
    {
        "type": "Restaurant",
        "region": "New York City",
        "sub_region": "Brooklyn",
        "name": "Lodge",
        "address": "318 Grand St.",
        "coordinates" : [40.7123985, -73.9567184],
        "city": "Brooklyn",
        "state": "NY",
        "zip_code": "11211",
        "phone_number": "718-486-9400",
        "url": "http://www.lodgenyc.com"
    },
    {
        "type": "Restaurant",
        "region": "New York City",
        "sub_region": "Brooklyn",
        "name": "Nightingale 9",
        "address": "329 Smith St",
        "coordinates" : [40.6805878, -73.9943542],
        "city": "Brooklyn",
        "state": "NY",
        "zip_code": "11231",
        "phone_number": "347-689-4699",
        "url": "http://www.nightingale9.com"
    },
    {
        "type": "Restaurant",
        "region": "Finger Lakes",
        "sub_region": "Canandaigua Lake",
        "name": "Brew and Brats at Arbor Hill",
        "address": "6461 State Route 64",
        "coordinates" : [42.7070045, -77.3798065],
        "city": "Naples",
        "state": "NY",
        "zip_code": "14512",
        "phone_number": "585-374-2870",
        "url": "http://www.brewandbrats.com"
    },
    {
        "type": "Restaurant",
        "region": "Finger Lakes",
        "sub_region": "Canandaigua Lake",
        "name": "Brown Hound Bistro",
        "address": "6459 State Route 64",
        "coordinates" : [42.7076073,-77.3801422],
        "city": "Naples",
        "state": "NY",
        "zip_code": "14512",
        "phone_number": "585-374-9771",
        "url": "http://www.brownhoundbistro.com"
    },
    {
        "type": "Restaurant",
        "region": "Finger Lakes",
        "sub_region": "Canandaigua Lake",
        "name": "Il Posto Bistro & Wine Bar",
        "address": "137 S Main Street",
        "coordinates" : [42.8858366, -77.2798209],
        "city": "Canandaigua",
        "state": "NY",
        "zip_code": "14424",
        "phone_number": "585-905-0535",
        "url": "http://www.ilpostobistroandwinebar.com"
    },
    {
        "type": "Restaurant",
        "region": "Finger Lakes",
        "sub_region": "Canandaigua Lake",
        "name": "Kismet New American Bistro",
        "address": "114 N. Main Street",
        "coordinates" : [42.6159554, -77.4025421],
        "city": "Naples",
        "state": "NY",
        "zip_code": "14512",
        "phone_number": "585-374-9171",
        "url": "http://www.kismetnewamericanbistro.com"
    },
    {
        "type": "Restaurant",
        "region": "Finger Lakes",
        "sub_region": "Canandaigua Lake",
        "name": "Rio Tomatlan Restaurant",
        "address": "106 Bemis Street",
        "coordinates" : [42.8864441, -77.2802608],
        "city": "Canandaigua",
        "state": "NY",
        "zip_code": "14424",
        "phone_number": "585-394-9380",
        "url": "http://www.riotomatlan.com"
    },
    {
        "type": "Restaurant",
        "region": "Finger Lakes",
        "sub_region": "Canandaigua Lake",
        "name": "Simply Crepes",
        "address": "101 South Main Street",
        "coordinates" : [42.8864441, -77.2802608],
        "city": "Canandaigua",
        "state": "NY",
        "zip_code": "14424",
        "phone_number": "585-394-9090",
        "url": "http://www.simplycrepes.com"
    },
    {
        "type": "Restaurant",
        "region": "Finger Lakes",
        "sub_region": "Canandaigua Lake",
        "name": "The Historic Naples Hotel",
        "address": "111 South Main Street",
        "coordinates" : [42.6148567, -77.4032593],
        "city": "Naples",
        "state": "NY",
        "zip_code": "14512",
        "phone_number": "585-374-5630",
        "url": "http://www.napleshotelny.com"
    },
    {
        "type": "Restaurant",
        "region": "Finger Lakes",
        "sub_region": "Canandaigua Lake",
        "name": "Upstairs Bistro at the New York Wine & Culinary Center",
        "address": "800 South Main Street",
        "coordinates" : [42.8755684, -77.2733917],
        "city": "Canandaigua",
        "state": "NY",
        "zip_code": "14424",
        "phone_number": "585-394-7070",
        "url": "http://www.nywcc.com"
    },
    {
        "type": "Restaurant",
        "region": "Finger Lakes",
        "sub_region": "Cayuga Lake",
        "name": "Pumpkin Hill Bistro",
        "address": "2051 Route 90",
        "coordinates" : [42.7185631, -76.6873856],
        "city": "Aurora",
        "state": "NY",
        "zip_code": "13026",
        "phone_number": "315&#41;364-7091",
        "url": "pumpkinhillbistro.com"
    },
    {
        "type": "Restaurant",
        "region": "Finger Lakes",
        "sub_region": "Cayuga Lake",
        "name": "The Bistro at Thirsty Owl Winery",
        "address": "6799 Elm Beach Rd",
        "coordinates" : [42.693838, -76.7440396],
        "city": "Ovid",
        "state": "NY",
        "zip_code": "14521",
        "phone_number": "607-869-5851",
        "url": "http://www.thirstyowl.com/Bistro"
    },
    {
        "type": "Restaurant",
        "region": "Finger Lakes",
        "sub_region": "Cayuga Lake",
        "name": "The Copper Oven at Cayuga Ridge Estate Winery",
        "address": "6800 State Route 89",
        "coordinates" : [42.6927323, -76.7455698],
        "city": "Ovid",
        "state": "NY",
        "zip_code": "14521",
        "phone_number": "800-598-WINE",
        "url": "http://www.cayugaridgewinery.com"
    },
    {
        "type": "Restaurant",
        "region": "Finger Lakes",
        "sub_region": "Cayuga Lake",
        "name": "The Crystal Lake Cafe at Americana Vineyards & Winery",
        "address": "4367 East Covert Road",
        "coordinates" : [42.5754949, -76.6771446],
        "city": "Interlaken",
        "state": "NY",
        "zip_code": "14847",
        "phone_number": "607.387.6804",
        "url": "http://www.americanavineyards.com"
    },
    {
        "type": "Restaurant",
        "region": "Finger Lakes",
        "sub_region": "Cayuga Lake",
        "name": "Vineyard Restaurant at Knapp Winery",
        "address": "2770 Ernsberger Rd",
        "coordinates" : [42.7657843, -76.7831596],
        "city": "Romulus",
        "state": "NY",
        "zip_code": "14541",
        "phone_number": "607-869-9271",
        "url": "http://www.knappwine.com"
    },
    {
        "type": "Restaurant",
        "region": "Finger Lakes",
        "sub_region": "Conesus & Hemlock Lakes",
        "name": "North Shore Grill",
        "address": "5870 Big Tree Rd.",
        "coordinates" : [42.8352206, -77.7010471],
        "city": "Lakeville",
        "state": "NY",
        "zip_code": "14480",
        "phone_number": "585-346-2200",
        "url": "http://www.northshoregrillny.com"
    },
    {
        "type": "Restaurant",
        "region": "North Country",
        "sub_region": "Greater Adirondacks Area &#40;Saratoga Springs, Lake Placid&#41;",
        "name": "Boca Bistro",
        "address": "384 Broadway",
        "coordinates" : [43.0810204, -73.7852402],
        "city": "Saratoga Springs",
        "state": "NY",
        "zip_code": "12866",
        "phone_number": "518-682-2801",
        "url": "http://www.bocabistro.com"
    },
    {
        "type": "Restaurant",
        "region": "North Country",
        "sub_region": "Greater Adirondacks Area &#40;Saratoga Springs, Lake Placid&#41;",
        "name": "Fifty South",
        "address": "2128 Doubleday Ave",
        "coordinates" : [43.0178566, -73.84272],
        "city": "Ballston Spa",
        "state": "NY",
        "zip_code": "12020",
        "phone_number": "518-884-2926",
        "url": "http://www.fiftysouth.com"
    },
    {
        "type": "Restaurant",
        "region": "North Country",
        "sub_region": "Greater Adirondacks Area &#40;Saratoga Springs, Lake Placid&#41;",
        "name": "McGreivey's Restaurant",
        "address": "91 Broad St",
        "coordinates" : [42.7908516, -73.6794434],
        "city": "Waterford",
        "state": "NY",
        "zip_code": "12188",
        "phone_number": "518-238-2020",
        "url": "http://www.mcgreiveys.com"
    },
    {
        "type": "Restaurant",
        "region": "North Country",
        "sub_region": "Greater Adirondacks Area &#40;Saratoga Springs, Lake Placid&#41;",
        "name": "The Log Jam",
        "address": "1484 US 9",
        "coordinates" : [43.3682594, -73.6974869],
        "city": "Lake George",
        "state": "NY",
        "zip_code": "12845",
        "phone_number": "518-798-1155",
        "url": "http://www.logjamrestaurant.com"
    },
    {
        "type": "Restaurant",
        "region": "Hudson River Valley/Catskills",
        "sub_region": "HR East",
        "name": "Local 111",
        "address": "111 Main Street",
        "coordinates" : [42.248848, -73.649147],
        "city": "Philmont",
        "state": "NY",
        "zip_code": "12565",
        "phone_number": "518-672-7801",
        "url": "http://www.local111.com"
    },
    {
        "type": "Restaurant",
        "region": "Hudson River Valley/Catskills",
        "sub_region": "HR East",
        "name": "RiverMarket Bar & Kitchen",
        "address": "127 W Main St",
        "coordinates" : [41.0772237, -73.8656511],
        "city": "Tarrytown",
        "state": "NY",
        "zip_code": "10591",
        "phone_number": "914-631-3100",
        "url": "http://www.rivermarketbarandkitchen.com"
    },
    {
        "type": "Restaurant",
        "region": "Hudson River Valley/Catskills",
        "sub_region": "HR East",
        "name": "The Winery at St. George",
        "address": "1715 E. Main Street",
        "coordinates" : [41.324707, -73.8505249],
        "city": "Mohegan Lake",
        "state": "NY",
        "zip_code": "10547",
        "phone_number": "914-455-4272",
        "url": "http://www.thewineryatstgeorge.com"
    },
    {
        "type": "Restaurant",
        "region": "Hudson River Valley/Catskills",
        "sub_region": "HR East",
        "name": "X2O",
        "address": "71 Water Grant Street",
        "coordinates" : [40.9328833, -73.9039396],
        "city": "Yonkers",
        "state": "NY",
        "zip_code": "10701",
        "phone_number": "914-965-1111",
        "url": "http://www.xaviars.com"
    },
    {
        "type": "Restaurant",
        "region": "Hudson River Valley/Catskills",
        "sub_region": "HR West",
        "name": "Eddie's Roadhouse",
        "address": "18 Main Street",
        "coordinates" : [41.2567245,-74.3598609],
        "city": "Warwick",
        "state": "NY",
        "zip_code": "10990",
        "phone_number": "845-986-7623",
        "url": "http://www.eddiesroadhouse.com"
    },
    {
        "type": "Restaurant",
        "region": "Hudson River Valley/Catskills",
        "sub_region": "HR West",
        "name": "Iron Forge Inn",
        "address": "38 Iron Forge Rd",
        "coordinates" : [41.251348, -74.3096694],
        "city": "Warwick",
        "state": "NY",
        "zip_code": "10990",
        "phone_number": "845-986-3411",
        "url": "http://www.ironforgeinn.com "
    },
    {
        "type": "Restaurant",
        "region": "Hudson River Valley/Catskills",
        "sub_region": "HR West",
        "name": "Pané Café/Black Dirt® at Warwick Valley Winery",
        "address": "114 Little York Road",
        "coordinates" : [41.2909851, -74.4419174],
        "city": "Warwick",
        "state": "NY",
        "zip_code": "10990",
        "phone_number": "845-258-4858",
        "url": "http://www.wvwinery.com"
    },
    {
        "type": "Restaurant",
        "region": "Hudson River Valley/Catskills",
        "sub_region": "HR West",
        "name": "Restaurant X",
        "address": "117 North Route 303",
        "coordinates" : [41.1554565, -73.9357452],
        "city": "Congers",
        "state": "NY",
        "zip_code": "10920",
        "phone_number": "845-268-6555",
        "url": "http://www.xaviars.com"
    },
    {
        "type": "Restaurant",
        "region": "Hudson River Valley/Catskills",
        "sub_region": "HR West",
        "name": "The Landmark Inn",
        "address": "526 Route 94 North",
        "coordinates" : [41.2786789, -74.3524628],
        "city": "Warwick",
        "state": "NY",
        "zip_code": "10990",
        "phone_number": "845-986-5444",
        "url": "http://www.landmarkinnwarwick.com "
    },
    {
        "type": "Restaurant",
        "region": "Hudson River Valley/Catskills",
        "sub_region": "HR West",
        "name": "The Village Tea Room",
        "address": "10 Plattekill Ave",
        "coordinates" : [41.7473145, -74.084465],
        "city": "New Paltz",
        "state": "NY",
        "zip_code": "12561",
        "phone_number": "845-255-3434",
        "url": "http://www.thevillagetearoom.com"
    },
    {
        "type": "Restaurant",
        "region": "Hudson River Valley/Catskills",
        "sub_region": "HR West",
        "name": "Vinum Café at Brotherhood Winery",
        "address": "84 Brotherhood Plaza Drive",
        "coordinates" : [41.4304888, -74.1616168],
        "city": "Washingtonville",
        "state": "NY",
        "zip_code": "10992",
        "phone_number": "845-496-9001",
        "url": "http://www.vinumcafe.com"
    },
    {
        "type": "Restaurant",
        "region": "Finger Lakes",
        "sub_region": "Keuka Lake",
        "name": "Blue Heron Café at Heron Hill Winery",
        "address": "9301 County Route 76",
        "coordinates" : [42.4490242, -77.1995621],
        "city": "Hammondsport",
        "state": "NY",
        "zip_code": "14840",
        "phone_number": "800-441-4241 x21",
        "url": "http://www.heronhill.com/Blue-Heron-Cafe"
    },
    {
        "type": "Restaurant",
        "region": "Finger Lakes",
        "sub_region": "Keuka Lake",
        "name": "Bully Hill Restaurant",
        "address": "8843 Greyton H. Tayloe Memorial Dr.",
        "coordinates" : [42.4301172, -77.2084721],
        "city": "Hammondsport",
        "state": "NY",
        "zip_code": "14840",
        "phone_number": "607-868-3610",
        "url": "http://www.bullyhillvineyards.com"
    },
    {
        "type": "Restaurant",
        "region": "Finger Lakes",
        "sub_region": "Keuka Lake",
        "name": "Esperanza Mansion",
        "address": "3456 State Route 54A",
        "coordinates" : [42.5959589, -77.1315222],
        "city": "Keuka Park",
        "state": "NY",
        "zip_code": "14478",
        "phone_number": "315-536-4400",
        "url": "http://www.esperanzamansion.com"
    },
    {
        "type": "Restaurant",
        "region": "Finger Lakes",
        "sub_region": "Keuka Lake",
        "name": "Union Block Italian Bistro",
        "address": "31 Shethar St.",
        "coordinates" : [42.4093924,-77.2222238],
        "city": "Hammondsport",
        "state": "NY",
        "zip_code": "14840",
        "phone_number": "607-246-4065",
        "url": "http://www.unionblockitalian.com"
    },
    {
        "type": "Restaurant",
        "region": "Finger Lakes",
        "sub_region": "Keuka Lake",
        "name": "Village Tavern Restaurant & Inn",
        "address": "30 Mechanic Street",
        "coordinates" : [42.4100609, -77.2217941],
        "city": "Hammondsport",
        "state": "NY",
        "zip_code": "14840",
        "phone_number": "607-569-2528",
        "url": "http://www.villagetaverninn.com"
    },
    {
        "type": "Restaurant",
        "region": "North Country",
        "sub_region": "Lake Champlain &#40;Chazy, Plattsburgh&#41;",
        "name": "Blue Collar Bistro",
        "address": "82 Margaret Street",
        "coordinates" : [44.6975441, -73.4526749],
        "city": "Plattsburgh",
        "state": "NY",
        "zip_code": "12901",
        "phone_number": "518-324-7888",
        "url": "http://www.facebook.com/BlueCollarBistro "
    },
    {
        "type": "Restaurant",
        "region": "North Country",
        "sub_region": "Lake Champlain &#40;Chazy, Plattsburgh&#41;",
        "name": "Conroy's Organics",
        "address": "8173 Route 9",
        "coordinates" : [44.8912888, -73.4372482],
        "city": "Chazy",
        "state": "NY",
        "zip_code": "12992",
        "phone_number": "518-562-2333",
        "url": "http://www.conroysorganics.com"
    },
    {
        "type": "Restaurant",
        "region": "North Country",
        "sub_region": "Lake Champlain &#40;Chazy, Plattsburgh&#41;",
        "name": "Irises Café & Wine Bar",
        "address": "20 City Hall Place",
        "coordinates" : [44.6982012, -73.4519559],
        "city": "Plattsburgh",
        "state": "NY",
        "zip_code": "12901",
        "phone_number": "518-666-7000",
        "url": "http://www.irisescafe.com"
    },
    {
        "type": "Restaurant",
        "region": "North Country",
        "sub_region": "Lake Champlain &#40;Chazy, Plattsburgh&#41;",
        "name": "Livingood's Restaurant & Brewery",
        "address": "697 Bear Swamp Road",
        "coordinates" : [44.5760803, -73.5115738],
        "city": "Peru",
        "state": "NY",
        "zip_code": "12972",
        "phone_number": "518-643-2020",
        "url": "http://www.livingoodsrestaurant.com"
    },
    {
        "type": "Restaurant",
        "region": "North Country",
        "sub_region": "Lake Champlain &#40;Chazy, Plattsburgh&#41;",
        "name": "Plattsburgh Brewing Co.",
        "address": "411 State Route 3",
        "coordinates" : [44.6955757, -73.4887848],
        "city": "Plattsburgh",
        "state": "NY",
        "zip_code": "12901",
        "phone_number": "518-324-6680",
        "url": "http://www.plattsburghbrewingco.com"
    },
    {
        "type": "Restaurant",
        "region": "New York City",
        "sub_region": "Manhattan",
        "name": "Brinkley's Broome Street",
        "address": "406 Broome Street",
        "coordinates" : [40.7212029, -73.9977417],
        "city": "New York",
        "state": "NY",
        "zip_code": "10003",
        "phone_number": "212-680-5600",
        "url": "http://www.brinkleysbroomestreet.com"
    },
    {
        "type": "Restaurant",
        "region": "New York City",
        "sub_region": "Manhattan",
        "name": "City Winery",
        "address": "155 Varick Street",
        "coordinates" : [40.7263096, -74.0057416],
        "city": "New York",
        "state": "NY",
        "zip_code": "10013",
        "phone_number": "212-608-0555",
        "url": "http://www.citywinery.com"
    },
    {
        "type": "Restaurant",
        "region": "New York City",
        "sub_region": "Manhattan",
        "name": "Craft",
        "address": "43 East 19th Street",
        "coordinates" : [40.6481628, -73.9618043],
        "city": "New York",
        "state": "NY",
        "zip_code": "10003",
        "phone_number": "212-780-0880",
        "url": "http://www.craftrestaurantsinc.com/craft-new-york/"
    },
    {
        "type": "Restaurant",
        "region": "New York City",
        "sub_region": "Manhattan",
        "name": "Eleven Madison Park",
        "address": "11 Madison Avenue",
        "coordinates" : [40.6169548, -74.1536407],
        "city": "New York",
        "state": "NY",
        "zip_code": "10010",
        "phone_number": "212-889-0905",
        "url": "http://www.elevenmadisonpark.com"
    },
    {
        "type": "Restaurant",
        "region": "New York City",
        "sub_region": "Manhattan",
        "name": "Gramercy Tavern",
        "address": "42 E 20th St",
        "coordinates" : [40.7383842, -73.9884262],
        "city": "New York",
        "state": "NY",
        "zip_code": "10003",
        "phone_number": "212-477-0777",
        "url": "http://www.gramercytavern.com"
    },
    {
        "type": "Restaurant",
        "region": "New York City",
        "sub_region": "Manhattan",
        "name": "Home Restaurant",
        "address": "20 Cornelia St",
        "coordinates" : [40.6877823, -73.9175339],
        "city": "New York",
        "state": "NY",
        "zip_code": "10014",
        "phone_number": "212-243-9579",
        "url": "http://www.homerestaurantnyc.com"
    },
    {
        "type": "Restaurant",
        "region": "New York City",
        "sub_region": "Manhattan",
        "name": "Monument Lane",
        "address": "103 Greenwich Avenue",
        "coordinates" : [40.7378006, -74.0020752],
        "city": "New York",
        "state": "NY",
        "zip_code": "10014",
        "phone_number": "212-255-0155",
        "url": "http://www.monumentlane.com"
    },
    {
        "type": "Restaurant",
        "region": "New York City",
        "sub_region": "Manhattan",
        "name": "Terroir",
        "address": "24 Harrison Street",
        "coordinates" : [40.7189102, -74.0099716],
        "city": "New York",
        "state": "NY",
        "zip_code": "01013",
        "phone_number": "212.625.9463",
        "url": "http://www.wineisterroir.com"
    },
    {
        "type": "Restaurant",
        "region": "New York City",
        "sub_region": "Manhattan",
        "name": "The Dutch",
        "address": "131 Sullivan St",
        "coordinates" : [40.7265819, -74.002203],
        "city": "New York",
        "state": "NY",
        "zip_code": "10012",
        "phone_number": "212-677-6200",
        "url": "http://www.thedutchnyc.com"
    },
    {
        "type": "Restaurant",
        "region": "New York City",
        "sub_region": "Manhattan",
        "name": "The Green Table",
        "address": "75 Ninth Avenue",
        "coordinates" : [40.8224092, -73.8090827],
        "city": "New York",
        "state": "NY",
        "zip_code": "10011",
        "phone_number": "212-741-6623",
        "url": "http://www.cleaverco.com"
    },
    {
        "type": "Restaurant",
        "region": "New York City",
        "sub_region": "Manhattan",
        "name": "The Marshal",
        "address": "628 10th Ave",
        "coordinates" : [40.5912296, -73.9634196],
        "city": "New York",
        "state": "NY",
        "zip_code": "10036",
        "phone_number": "212-582-6300",
        "url": "http://www.the-marshall.com"
    },
    {
        "type": "Restaurant",
        "region": "New York City",
        "sub_region": "Manhattan",
        "name": "The NoMad Restaurant",
        "address": "1170 Broadway",
        "coordinates" : [40.6924716, -73.9273882],
        "city": "New York",
        "state": "NY",
        "zip_code": "10001",
        "phone_number": "347-472-5660",
        "url": "http://www.thenomadhotel.com"
    },
    {
        "type": "Restaurant",
        "region": "New York City",
        "sub_region": "Manhattan",
        "name": "The Pullman Kitchen",
        "address": "959 2nd Avenue",
        "coordinates" : [40.7553593, -73.9682396],
        "city": "New York",
        "state": "NY",
        "zip_code": "10022",
        "phone_number": "212-888-7404",
        "url": "http://www.thepullmankitchen.com"
    },
    {
        "type": "Restaurant",
        "region": "Long Island",
        "sub_region": "North Fork",
        "name": "A Lure",
        "address": "62300 Main Road",
        "coordinates" : [41.0762863, -72.4021454],
        "city": "Southold",
        "state": "NY",
        "zip_code": "11971",
        "phone_number": "631-876-5300",
        "url": "http://www.alurenorthfork.com"
    },
    {
        "type": "Restaurant",
        "region": "Long Island",
        "sub_region": "North Fork",
        "name": "a Mano Osteria & Wine Bar",
        "address": "13550 Main Road",
        "coordinates" : [40.9917793,-72.5313568],
        "city": "Mattituck",
        "state": "NY",
        "zip_code": "11952",
        "phone_number": "631-298-4800",
        "url": "http://www.amanorestaurant.com"
    },
    {
        "type": "Restaurant",
        "region": "Long Island",
        "sub_region": "North Fork",
        "name": "Noah's",
        "address": "136 Front Street",
        "coordinates" : [41.1022186, -72.3617859],
        "city": "Greenport",
        "state": "NY",
        "zip_code": "11944",
        "phone_number": "631-477-6720",
        "url": "http://www.chefnoahs.com"
    },
    {
        "type": "Restaurant",
        "region": "Long Island",
        "sub_region": "North Fork",
        "name": "North Fork Table",
        "address": "57225 Main Road",
        "coordinates" : [41.0683746, -72.4171677],
        "city": "Southold",
        "state": "NY",
        "zip_code": "11971",
        "phone_number": "631-765-0177",
        "url": "http://www.nofoti.com"
    },
    {
        "type": "Restaurant",
        "region": "Long Island",
        "sub_region": "North Fork",
        "name": "Petulant Wino Bistro & Wine Bar",
        "address": "739 Main Road",
        "coordinates" : [40.9471779, -72.618103],
        "city": "Aquebogue",
        "state": "NY",
        "zip_code": "11931",
        "phone_number": "631-779-3900",
        "url": "http://www.petulantwino.com"
    },
    {
        "type": "Restaurant",
        "region": "New York City",
        "sub_region": "Queens",
        "name": "Keuka Kafe",
        "address": "11204 Queens Blvd",
        "coordinates" : [40.7206116, -73.8418579],
        "city": "Forest Hills",
        "state": "NY",
        "zip_code": "11375",
        "phone_number": "718-880-1478",
        "url": "http://www.keukakafe.com"
    },
    {
        "type": "Restaurant",
        "region": "Finger Lakes",
        "sub_region": "Seneca Lake",
        "name": "Blue Pointe Grille at Watkins Glen Harbor Hotel",
        "address": "16 N Franklin St",
        "coordinates" : [42.3832588, -76.8736725],
        "city": "Watkins Glen",
        "state": "NY",
        "zip_code": "14891",
        "phone_number": "607-535-6116",
        "url": "http://www.watkinsglenharborhotel.com"
    },
    {
        "type": "Restaurant",
        "region": "Finger Lakes",
        "sub_region": "Seneca Lake",
        "name": "Castel Grisch Winery & Restaurant",
        "address": "3380 County Route 28",
        "coordinates" : [42.3968582, -76.9007645],
        "city": "Watkins Glen",
        "state": "NY",
        "zip_code": "14891",
        "phone_number": "607-535-9614",
        "url": "http://www.castelgrisch.com"
    },
    {
        "type": "Restaurant",
        "region": "Finger Lakes",
        "sub_region": "Seneca Lake",
        "name": "Eagle Hotel",
        "address": "3622 Lakemont-Himrod Rd",
        "coordinates" : [42.5895996, -76.9554138],
        "city": "Himrod",
        "state": "NY",
        "zip_code": "14842",
        "phone_number": "607-243-5868",
        "url": null
    },
    {
        "type": "Restaurant",
        "region": "Finger Lakes",
        "sub_region": "Seneca Lake",
        "name": "Fox Run Café & Market",
        "address": "670 State Route 14",
        "coordinates" : [42.7316132, -76.9759521],
        "city": "Penn Yan",
        "state": "NY",
        "zip_code": "14527",
        "phone_number": "315-536-4616",
        "url": "http://www.foxrunvineyards.com/cafe.asp"
    },
    {
        "type": "Restaurant",
        "region": "Finger Lakes",
        "sub_region": "Seneca Lake",
        "name": "Ginny Lee Café at Wagner Vineyards",
        "address": "9322 State Route 414",
        "coordinates" : [42.5729596, -76.8581012],
        "city": "Lodi",
        "state": "NY",
        "zip_code": "14860",
        "phone_number": "607-582-6574",
        "url": "http://www.theginnylee.com"
    },
    {
        "type": "Restaurant",
        "region": "Finger Lakes",
        "sub_region": "Seneca Lake",
        "name": "Halsey's Restaurant",
        "address": "106 Seneca Street",
        "coordinates" : [42.8667312, -76.9844379],
        "city": "Geneva",
        "state": "NY",
        "zip_code": "14456",
        "phone_number": "315-789-4070",
        "url": "http://www.halseysgeneva.com"
    },
    {
        "type": "Restaurant",
        "region": "Finger Lakes",
        "sub_region": "Seneca Lake",
        "name": "Ports Café",
        "address": "4432 W Lake Rd",
        "coordinates" : [42.8149109, -76.9774467],
        "city": "Geneva",
        "state": "NY",
        "zip_code": "14456",
        "phone_number": "315-789-2020",
        "url": "http://www.portscafe.com"
    },
    {
        "type": "Restaurant",
        "region": "Finger Lakes",
        "sub_region": "Seneca Lake",
        "name": "Red Dove Tavern",
        "address": "30 Castle Street",
        "coordinates" : [42.8680374, -76.982272],
        "city": "Geneva",
        "state": "NY",
        "zip_code": "14456",
        "phone_number": "315-781-2020",
        "url": "http://www.reddovetavern.com"
    },
    {
        "type": "Restaurant",
        "region": "Finger Lakes",
        "sub_region": "Seneca Lake",
        "name": "Red Newt Cellars & Bistro",
        "address": "3675 Tichenor Road",
        "coordinates" : [42.5019531, -76.8671875],
        "city": "Hector",
        "state": "NY",
        "zip_code": "14841",
        "phone_number": "607-546-4100",
        "url": "http://www.rednewt.com"
    },
    {
        "type": "Restaurant",
        "region": "Finger Lakes",
        "sub_region": "Seneca Lake",
        "name": "Suzanne Fine Regional Cuisine",
        "address": "9013 State Route 414",
        "coordinates" : [42.5863827, -76.8513541],
        "city": "Lodi",
        "state": "NY",
        "zip_code": "14860",
        "phone_number": "607-582-7545",
        "url": "http://www.suzannefrc.com"
    },
    {
        "type": "Restaurant",
        "region": "Finger Lakes",
        "sub_region": "Seneca Lake",
        "name": "The Café at Miles Wine Cellars",
        "address": "168 Randall Crossing Rd",
        "coordinates" : [42.617045, -76.9223683],
        "city": "Himrod",
        "state": "Ny",
        "zip_code": "14842",
        "phone_number": "607-243-7742",
        "url": "http://www.mileswinecellars.com"
    },
    {
        "type": "Restaurant",
        "region": "Finger Lakes",
        "sub_region": "Seneca Lake",
        "name": "Veraisons at The Inn at Glenora",
        "address": "5435  State Route 14",
        "coordinates" : [42.5005084,-76.9242766],
        "city": "Dundee",
        "state": "NY",
        "zip_code": "14837",
        "phone_number": "800-243-5513",
        "url": "http://www.glenora.com/Restaurant/Veraisons-Restaurant"
    },
    {
        "type": "Restaurant",
        "region": "Finger Lakes",
        "sub_region": "Seneca Lake",
        "name": "Waterlillies Café at Magnus Ridge Winery",
        "address": "6148 State Route 14",
        "coordinates" : [42.4651031, -76.9182358],
        "city": "Rock Stream",
        "state": "NY",
        "zip_code": "14878",
        "phone_number": "607-243-3611",
        "url": "http://www.magnusridge.com"
    },
    {
        "type": "Restaurant",
        "region": "Finger Lakes",
        "sub_region": "Skaneateles Lake",
        "name": "Doug's Fish Fry",
        "address": "8 Jordan St.",
        "coordinates" : [42.9461253, -76.4290624],
        "city": "Skaneateles",
        "state": "NY",
        "zip_code": "13152",
        "phone_number": "315-685-3288",
        "url": "http://www.dougsfishfry.com"
    },
    {
        "type": "Restaurant",
        "region": "Finger Lakes",
        "sub_region": "Skaneateles Lake",
        "name": "Sherwood Inn",
        "address": "26 W. Genesee St.",
        "coordinates" : [42.9456863, -76.4313583],
        "city": "Skaneateles",
        "state": "NY",
        "zip_code": "13152",
        "phone_number": "315-685-3405",
        "url": "http://www.thesherwoodinn.com"
    },
    {
        "type": "Restaurant",
        "region": "North Country",
        "sub_region": "Thousand Islands",
        "name": "Clipper Inn",
        "address": "126 State Street",
        "coordinates" : [44.2388856, -76.0744214],
        "city": "Clayton",
        "state": "NY",
        "zip_code": "13624",
        "phone_number": "315-686-3842",
        "url": "http://www.clipperinn.com"
    },
    {
        "type": "Restaurant",
        "region": "North Country",
        "sub_region": "Thousand Islands",
        "name": "Coyote Moon Vineyards Lounge",
        "address": "524 Riverside Drive",
        "coordinates" : [44.2422659, -76.0885439],
        "city": "Clayton",
        "state": "NY",
        "zip_code": "13624",
        "phone_number": "315-686-4030",
        "url": "http://www.coyotemoonvineyards.com"
    },
    {
        "type": "Restaurant",
        "region": "North Country",
        "sub_region": "Thousand Islands",
        "name": "Jacques Cartier Room at Riveredge Resort",
        "address": "17 Holland Street",
        "coordinates" : [44.3390846, -75.9155807],
        "city": "Alexandria Bay",
        "state": "NY",
        "zip_code": "13607",
        "phone_number": "800-365-6987",
        "url": "http://www.riveredgeresort.com"
    },
    {
        "type": "Restaurant",
        "region": "North Country",
        "sub_region": "Thousand Islands",
        "name": "Seaway Grill at 1000 Islands Harbor Hotel",
        "address": "200 Riverside Drive",
        "coordinates" : [44.2425461, -76.0832291],
        "city": "Clayton",
        "state": "NY",
        "zip_code": "13624",
        "phone_number": "315-686-1100",
        "url": "http://www.1000islandsharborhotel.com"
    },
    {
        "type": "Restaurant",
        "region": "North Country",
        "sub_region": "Thousand Islands",
        "name": "The Manor House Restaurant at Bonnie Castle Resort",
        "address": "31 Holland Street",
        "coordinates" : [44.3419075, -75.9144135],
        "city": "Alexandria Bay",
        "state": "NY",
        "zip_code": "13607",
        "phone_number": "315-482-4511",
        "url": "http://www.bonniecastle.com"
    },
    {
        "type": "Restaurant",
        "region": "Lake Erie",
        "sub_region": "",
        "name": "Anthenaeum Heirloom Restaurant",
        "address": "3 South Lake Drive",
        "coordinates" : [42.2104523, -79.4633804],
        "city": "Chautauqua",
        "state": "NY",
        "zip_code": "14722",
        "phone_number": "716-357-4444",
        "url": "http://www.athenaeum-hotel.com"
    },
    {
        "type": "Restaurant",
        "region": "Niagara Escarpment/Greater Niagara Area",
        "sub_region": "",
        "name": "Becker Farms",
        "address": "3724 Quaker Road",
        "coordinates" : [43.2198181, -78.5427856],
        "city": "Gasport",
        "state": "NY",
        "zip_code": "14067",
        "phone_number": "716-772-2211",
        "url": "http://www.beckerfarms.com"
    },
    {
        "type": "Restaurant",
        "region": "Lake Erie",
        "sub_region": "",
        "name": "Brazill's on Main",
        "address": "7 East Main Street",
        "coordinates" : [42.3221603,-79.5779061],
        "city": "Westfield",
        "state": "NY",
        "zip_code": "14787",
        "phone_number": "716-326-2203",
        "url": "http://www.facebook.com/BrazillsOnMain"
    },
    {
        "type": "Restaurant",
        "region": "Niagara Escarpment/Greater Niagara Area",
        "sub_region": "",
        "name": "DeFlippo’s Italian Restaurant and Bed & Breakfast",
        "address": "326 West Avenue",
        "coordinates" : [43.1667824, -78.7072525],
        "city": "Lockport",
        "state": "NY",
        "zip_code": "14094",
        "phone_number": "716-433-2913",
        "url": "http://www.DeFlippos.com"
    },
    {
        "type": "Restaurant",
        "region": "Lake Erie",
        "sub_region": "",
        "name": "EBC West",
        "address": "34 West Main Street",
        "coordinates" : [42.4391861, -79.3322525],
        "city": "Fredonia",
        "state": "NY",
        "zip_code": "14063",
        "phone_number": "716-679-7939",
        "url": "http://www.ellicottvillebrewing.com"
    },
    {
        "type": "Restaurant",
        "region": "Central New York",
        "sub_region": "",
        "name": "Fly Creek Cider Mill Restaurant & Bakery",
        "address": "288 Goose Street",
        "coordinates" : [42.7248459, -74.9783173],
        "city": "Fly Creek",
        "state": "NY",
        "zip_code": "13337",
        "phone_number": "800-505-6455",
        "url": "http://www.flycreekcidermill.com"
    },
    {
        "type": "Restaurant",
        "region": "Lake Erie",
        "sub_region": "",
        "name": "Forte",
        "address": "114 East Third Street",
        "coordinates" : [42.0965791, -79.2394971],
        "city": "Jamestown",
        "state": "NY",
        "zip_code": "14701",
        "phone_number": "716-484-6063",
        "url": "http://www.fortetherestaurant.com"
    },
    {
        "type": "Restaurant",
        "region": "Lake Ontario",
        "sub_region": "",
        "name": "Garden Café at Burnap's Farm Market",
        "address": "7277 Maple Avenue",
        "coordinates" : [43.2637417, -77.0639057],
        "city": "Sodus",
        "state": "NY",
        "zip_code": "14551",
        "phone_number": "315-483-4050",
        "url": "http://www.burnapsfarm.com"
    },
    {
        "type": "Restaurant",
        "region": "Lake Erie",
        "sub_region": "",
        "name": "La Fleur Restaurant",
        "address": "5031 W Lake Road",
        "coordinates" : [42.2184639, -79.4861908],
        "city": "Mayville",
        "state": "NY",
        "zip_code": "14757",
        "phone_number": "716-753 3512",
        "url": "http://www.restaurantlafleur.net"
    },
    {
        "type": "Restaurant",
        "region": "Central New York",
        "sub_region": "",
        "name": "Lake Front Restaurant & Bar",
        "address": "10 Fair Street",
        "coordinates" : [42.7022896, -74.9220352],
        "city": "Cooperstown",
        "state": "NY",
        "zip_code": "13326",
        "phone_number": "607-547-8188",
        "url": "http://www.lakefrontmotelandrestaurant.com"
    },
    {
        "type": "Restaurant",
        "region": "Niagara Escarpment/Greater Niagara Area",
        "sub_region": "",
        "name": "Mericana",
        "address": "80 Main St",
        "coordinates" : [43.1699333, -78.6911087],
        "city": "Lockport",
        "state": "NY",
        "zip_code": "14094",
        "phone_number": "716-201-1859",
        "url": "http://www.mericana-ny.com"
    },
    {
        "type": "Restaurant",
        "region": "Niagara Escarpment/Greater Niagara Area",
        "sub_region": "",
        "name": "Red Coach Inn Restaurant",
        "address": "2 Buffalo Ave",
        "coordinates" : [43.0841243, -79.0632056],
        "city": "Niagara Falls",
        "state": "NY",
        "zip_code": "14303",
        "phone_number": "716-282-1459",
        "url": "http://www.redcoach.com"
    },
    {
        "type": "Restaurant",
        "region": "Niagara Escarpment/Greater Niagara Area",
        "sub_region": "",
        "name": "Savor at Niagara Falls Culinary Institute",
        "address": "28 Old Falls Street",
        "coordinates" : [43.0864182, -79.0623779],
        "city": "Niagara Falls",
        "state": "NY",
        "zip_code": "14303",
        "phone_number": "716-210-2525",
        "url": "http://www.nfculinary.org/savor"
    },
    {
        "type": "Restaurant",
        "region": "Niagara Escarpment/Greater Niagara Area",
        "sub_region": "",
        "name": "Shamus Restaurant",
        "address": "98 West Ave",
        "coordinates" : [43.1681175, -78.6990662],
        "city": "Lockport",
        "state": "NY",
        "zip_code": "14094",
        "phone_number": "716-433-9809",
        "url": "http://www.theshamus.com"
    },
    {
        "type": "Restaurant",
        "region": "Central New York",
        "sub_region": "",
        "name": "The Café at Brewery Ommegang",
        "address": "656 County Highway 23",
        "coordinates" : [42.8158564, -75.091827],
        "city": "Cooperstown",
        "state": "NY",
        "zip_code": "13326",
        "phone_number": "607-544-1800",
        "url": "http://www.ommegang,com"
    },
    {
        "type": "Restaurant",
        "region": "Lake Ontario",
        "sub_region": "",
        "name": "The Pultneyville Grill",
        "address": "4135 Lake Road",
        "coordinates" : [43.2809296, -77.1848297],
        "city": "Pulteneyville",
        "state": "NY",
        "zip_code": "14538",
        "phone_number": "315-589-4512",
        "url": "http://www.pultneyvillegrill.com"
    },
    {
        "type": "Restaurant",
        "region": "Lake Erie",
        "sub_region": "",
        "name": "Webb's Captain's Table Restaurant",
        "address": "155 W Lake Road",
        "coordinates" : [42.2357536, -79.4920787],
        "city": "Mayville",
        "state": "NY",
        "zip_code": "14757",
        "phone_number": "716-753 3960",
        "url": "http://www.webbscaptainstable.com"
    },
    {
        "type": "Restaurant",
        "region": "Niagara Escarpment/Greater Niagara Area",
        "sub_region": "",
        "name": "Wilson Boat House",
        "address": "57 Harbor Streer",
        "coordinates" : [43.316608, -78.833244],
        "city": "Wilson",
        "state": "NY",
        "zip_code": "14172",
        "phone_number": "716-751-6060",
        "url": "http://www.wilsonboathouse.com"
    },
    {
        "type": "Restaurant",
        "region": "Niagara Escarpment/Greater Niagara Area",
        "sub_region": "",
        "name": "Wilson House Restaurant & Inn",
        "address": "300 Lake St",
        "coordinates" : [43.3095022, -78.825991],
        "city": "Wilson",
        "state": "NY",
        "zip_code": "14172",
        "phone_number": "716-751-9888",
        "url": "http://www.thewilsonhouserestaurant.com"
    },
    {
        "type": "Restaurant",
        "region": "Niagara Escarpment/Greater Niagara Area",
        "sub_region": "",
        "name": "Zambistro",
        "address": "408 Main Street",
        "coordinates" : [43.2216339, -78.3873215],
        "city": "Medina",
        "state": "NY",
        "zip_code": "14103",
        "phone_number": "585-798-2433",
        "url": "http://www.zambistro.com"
    }
]