[
    {
        "type": "winery",
        "region": "Central New York",
        "sub_region": null,
        "name": "Magpie Farms",
        "address": "1849 Hwy 41",
        "city": "Bainbridge",
        "state": "NY",
        "zip_code": "13733",
        "phone_number": "&#40;607&#41; 639-4400",
        "url": "http://www.magpiemead.com",
        "coordinates": [42.2929993,-75.5732956]
    },
    {
        "type": "winery",
        "region": "Central New York",
        "sub_region": null,
        "name": "Lone Maple Farm LLC",
        "address": "2001 Hawleyton Rd",
        "city": "Binghamton",
        "state": "NY",
        "zip_code": "13903",
        "phone_number": "&#40;607&#41; 724-6877",
        "url": "http://www.lonemaplefarm.com",
        "coordinates": [42.0708427,-75.9225922]
    },
    {
        "type": "winery",
        "region": "Central New York",
        "sub_region": null,
        "name": "Rustic Ridge Winery",
        "address": "2805 State Hwy. 80",
        "city": "Burlington Flats",
        "state": "NY",
        "zip_code": "13315",
        "phone_number": "607-965-0626",
        "url": "http://www.rusticridgewinery.com",
        "coordinates": [42.7210175,-75.1572085]
    },
    {
        "type": "winery",
        "region": "Central New York",
        "sub_region": null,
        "name": "Harvest Moon Cidery at Critz Farms",
        "address": "3232 Rippleton Rd.",
        "city": "Cazenovia",
        "state": "NY",
        "zip_code": "13035",
        "phone_number": "315-662-3355",
        "url": "http://www.harvestmooncidery.com",
        "coordinates": [42.8819662,-75.8747886]
    },
    {
        "type": "winery",
        "region": "Central New York",
        "sub_region": null,
        "name": "Owera Vineyards",
        "address": "5276 East Lake Rd.",
        "city": "Cazenovia",
        "state": "NY",
        "zip_code": "13035",
        "phone_number": "315-815-4311",
        "url": "http://www.oweravineyards.com",
        "coordinates": [42.9778442,-75.875618]
    },
    {
        "type": "winery",
        "region": "Central New York",
        "sub_region": null,
        "name": "Black Bear Farm Winery",
        "address": "248 County Road 1",
        "city": "Chenango Forks",
        "state": "NY",
        "zip_code": "13746",
        "phone_number": "&#40;607&#41; 656-9863",
        "url": "http://www.blackbearwinery.com",
        "coordinates": [42.2663308,-75.8283837]
    },
    {
        "type": "winery",
        "region": "Central New York",
        "sub_region": null,
        "name": "Greenwood Winery",
        "address": "6475 Collamer Rd.",
        "city": "East Syracuse",
        "state": "NY",
        "zip_code": "13057",
        "phone_number": "315-447-0634",
        "url": "http://www.greenwoodwinery.com",
        "coordinates": [43.10215,-76.0737076]
    },
    {
        "type": "winery",
        "region": "Central New York",
        "sub_region": null,
        "name": "Stoneyridge Orchard & Winery",
        "address": "160 Bixby Rd.",
        "city": "Erin",
        "state": "NY",
        "zip_code": "14838",
        "phone_number": "607-796-9842",
        "url": "http://www.stoneyridgeorchard.com",
        "coordinates": [42.1592268,-76.6650626]
    },
    {
        "type": "winery",
        "region": "Central New York",
        "sub_region": null,
        "name": "Fly Creek Cider Mill & Orchard",
        "address": "288 Goose Street",
        "city": "Fly Creek",
        "state": "NY",
        "zip_code": "13337",
        "phone_number": "&#40;607&#41; 547-9692",
        "url": "http://www.flycreekcidermill.com",
        "coordinates": [42.7248459,-74.9783173]
    },
    {
        "type": "winery",
        "region": "Central New York",
        "sub_region": null,
        "name": "Pail Shop Vineyards",
        "address": "126 Goose St.",
        "city": "Fly Creek",
        "state": "NY",
        "zip_code": "13337",
        "phone_number": "607-282-4027",
        "url": "http://www.pailshopvineyards.com",
        "coordinates": [42.7180595,-74.9708252]
    },
    {
        "type": "winery",
        "region": "Central New York",
        "sub_region": null,
        "name": "Domhnall Vineyards & Winery",
        "address": "531 Shells Bush Road",
        "city": "Herkimer",
        "state": "NY",
        "zip_code": "13350",
        "phone_number": "315-868-3621",
        "url": "http://www.domhnallwine.com",
        "coordinates": [43.0587097,-74.9606911]
    },
    {
        "type": "winery",
        "region": "Central New York",
        "sub_region": null,
        "name": "1911 Spirits",
        "address": "2708 Lords Hill Rd. &#40;Route 80&#41;",
        "city": "Lafayette",
        "state": "NY",
        "zip_code": "13084",
        "phone_number": "&#40;315&#41; 677-5425",
        "url": "http://www.1911spirits.com",
        "coordinates": [42.9024234,-76.2212462]
    },
    {
        "type": "winery",
        "region": "Central New York",
        "sub_region": null,
        "name": "Stone Age Winery",
        "address": "1013 Tulip Street",
        "city": "Liverpool",
        "state": "NY",
        "zip_code": "13088",
        "phone_number": "&#40;315&#41; 457-6718",
        "url": "",
        "coordinates": [43.1109505,-76.2064362]
    },
    {
        "type": "winery",
        "region": "Central New York",
        "sub_region": null,
        "name": "Eminence Road Farm Winery",
        "address": "3734 Eminence Rd.",
        "city": "Long Eddy",
        "state": "NY",
        "zip_code": "12760",
        "phone_number": "845-887-6280",
        "url": "http://www.EminenceRoad.com",
        "coordinates": [41.8977928,-75.0482025]
    },
    {
        "type": "winery",
        "region": "Central New York",
        "sub_region": null,
        "name": "Cherry Knoll Farm",
        "address": "3426 Hoxie Gorge Freetown Rd",
        "city": "Marathon",
        "state": "NY",
        "zip_code": "13803",
        "phone_number": "&#40;607&#41; 849-6886",
        "url": "http://www.cherryknollfarm.com",
        "coordinates": [42.5230765,-76.049733]
    },
    {
        "type": "winery",
        "region": "Central New York",
        "sub_region": null,
        "name": "Bear Pond Winery",
        "address": "2515 State Route 28",
        "city": "Oneonta",
        "state": "NY",
        "zip_code": "13820",
        "phone_number": "&#40;607&#41; 643-0294",
        "url": "http://www.bearpondwines.com",
        "coordinates": [42.5207291,-74.9926224]
    },
    {
        "type": "winery",
        "region": "Central New York",
        "sub_region": null,
        "name": "Glen Park Vineyards",
        "address": "633 Allen Glen Rd.",
        "city": "Owego",
        "state": "NY",
        "zip_code": "13827",
        "phone_number": "607-687-3150",
        "url": "http://www.glenparkvineyards.com",
        "coordinates": [42.1209641,-76.2562256]
    },
    {
        "type": "winery",
        "region": "Central New York",
        "sub_region": null,
        "name": "Royal Meadery",
        "address": "1532 State Route 7",
        "city": "Richmondville",
        "state": "NY",
        "zip_code": "12149",
        "phone_number": null,
        "url": "http://www.royalmeadery.com",
        "coordinates": [42.6561508,-74.5110855]
    },
    {
        "type": "winery",
        "region": "Central New York",
        "sub_region": null,
        "name": "Blue Sky Farm & Winery",
        "address": "779 Charcoal Rd.",
        "city": "Stamford",
        "state": "NY",
        "zip_code": "12167",
        "phone_number": "607-652-4712",
        "url": "http://www.blueskyfarmwinery.com",
        "coordinates": [42.3930931,-74.5641632]
    },
    {
        "type": "winery",
        "region": "Central New York",
        "sub_region": null,
        "name": "Kymar Farm Winery & Distillery",
        "address": "223 Truax Rd.",
        "city": "Summit",
        "state": "NY",
        "zip_code": "12175",
        "phone_number": "&#40;518&#41; 290 0051",
        "url": "http://www.ky-mar.com",
        "coordinates": [42.5748329,-74.663414]
    },
    {
        "type": "winery",
        "region": "Central New York",
        "sub_region": null,
        "name": "Lakeland Winery Inc.",
        "address": "877 State Fair Blvd.",
        "city": "Syracuse",
        "state": "NY",
        "zip_code": "13209",
        "phone_number": "&#40;315&#41; 487-2884",
        "url": "http://www.lakelandwinery.com",
        "coordinates": [43.0928917,-76.2431259]
    },
    {
        "type": "winery",
        "region": "Central New York",
        "sub_region": null,
        "name": "Eve's Cidery",
        "address": "308 Beckhorn Hollow Road",
        "city": "Van Etten",
        "state": "NY",
        "zip_code": "14889",
        "phone_number": "607-229-0230",
        "url": "http://www.evescidery.com",
        "coordinates": [42.1853408,-76.5650645]
    },
    {
        "type": "winery",
        "region": "Central New York",
        "sub_region": null,
        "name": "Villa Verona Vineyard",
        "address": "4914 State Route 365",
        "city": "Verona",
        "state": "NY",
        "zip_code": "13478",
        "phone_number": "315-363-3300",
        "url": "http://www.villaveronavineyard.com",
        "coordinates": [43.0997951,-75.6145949]
    },
    {
        "type": "winery",
        "region": "Central New York",
        "sub_region": null,
        "name": "Ashley Lynn Winery",
        "address": "827 State Route 318",
        "city": "Waterloo",
        "state": "NY",
        "zip_code": "13165",
        "phone_number": null,
        "url": "http://www.ashleywines.com",
        "coordinates": [42.9545581,-76.9095386]
    },
    {
        "type": "winery",
        "region": "Central New York",
        "sub_region": null,
        "name": "Giancarelli Brothers Winery LLC",
        "address": "10252 Shortcut Road",
        "city": "Weedsport",
        "state": "NY",
        "zip_code": "13166",
        "phone_number": "&#40;315&#41; 626-2830",
        "url": "http://www.giancarelliwinery.com",
        "coordinates": [43.1119576,-76.5334625]
    },
    {
        "type": "winery",
        "region": "Finger Lakes",
        "sub_region": "Canandaigua Lake",
        "name": "Arbor Hill Grapery & Winery",
        "address": "6461 State Route 64",
        "city": "Naples",
        "state": "NY",
        "zip_code": "14512",
        "phone_number": "585-374-2870",
        "url": "http://www.thegrapery.com",
        "coordinates": [42.7070045,-77.3798065]
    },
    {
        "type": "winery",
        "region": "Finger Lakes",
        "sub_region": "Canandaigua Lake",
        "name": "Casa Larga Vineyards",
        "address": "2287 Turk Hill Road",
        "city": "Fairport",
        "state": "NY",
        "zip_code": "14450",
        "phone_number": "&#40;585&#41; 223-4210",
        "url": "http://www.casalarga.com",
        "coordinates": [43.1067009,-77.4321289]
    },
    {
        "type": "winery",
        "region": "Finger Lakes",
        "sub_region": "Canandaigua Lake",
        "name": "Finger Lakes Wine Center at Sonnenberg Gardens",
        "address": "151 Charlotte St.",
        "city": "Canandaigua",
        "state": "NY",
        "zip_code": "14424",
        "phone_number": "585-394-9016",
        "url": "http://www.fingerlakeswinecenter.com",
        "coordinates": [42.89814,-77.2721558]
    },
    {
        "type": "winery",
        "region": "Finger Lakes",
        "sub_region": "Canandaigua Lake",
        "name": "Hazlitt's Red Cat Cellars",
        "address": "1 Lake Niagara Lane",
        "city": "Naples",
        "state": "NY",
        "zip_code": "14512",
        "phone_number": "585-531-9000",
        "url": "http://www.redcatwine.com",
        "coordinates": [42.6214935,-77.3983658]
    },
    {
        "type": "winery",
        "region": "Finger Lakes",
        "sub_region": "Canandaigua Lake",
        "name": "Heron Hill Tasting Room at Bristol",
        "address": "5323 Seneca Point Road",
        "city": "Canandaigua",
        "state": "NY",
        "zip_code": "14424",
        "phone_number": "585-394-0173",
        "url": "http://www.heronhill.com",
        "coordinates": [42.7622223,-77.3352661]
    },
    {
        "type": "winery",
        "region": "Finger Lakes",
        "sub_region": "Canandaigua Lake",
        "name": "Inspire Moore Winery & Vineyard",
        "address": "197 North Main St",
        "city": "Naples",
        "state": "NY",
        "zip_code": "14512",
        "phone_number": "585-374-5970",
        "url": "http://www.inspiremoorewinery.com",
        "coordinates": [42.6253166,-77.3950043]
    },
    {
        "type": "winery",
        "region": "Finger Lakes",
        "sub_region": "Canandaigua Lake",
        "name": "New York Wine & Culinary Center",
        "address": "800 South Main Street",
        "city": "Canandaigua",
        "state": "NY",
        "zip_code": "14424",
        "phone_number": "&#40;585&#41; 394-7070",
        "url": "http://www.nywcc.com",
        "coordinates": [42.8755684,-77.2733917]
    },
    {
        "type": "winery",
        "region": "Finger Lakes",
        "sub_region": "Canandaigua Lake",
        "name": "Raymor Estate Cellars",
        "address": "3263 Wheeler Station Rd.",
        "city": "Bloomfield",
        "state": "NY",
        "zip_code": "14469",
        "phone_number": "585-233-9860",
        "url": "http://www.raymorcellars.com",
        "coordinates": [42.8675079,-77.3795471]
    },
    {
        "type": "winery",
        "region": "Finger Lakes",
        "sub_region": "Canandaigua Lake",
        "name": "Song Hill Winery",
        "address": "521 County Rd. 9",
        "city": "Victor",
        "state": "NY",
        "zip_code": "14564",
        "phone_number": "773-551-9245",
        "url": "http://www.songhillwinery.com",
        "coordinates": [43.0135231,-77.3985422]
    },
    {
        "type": "winery",
        "region": "Finger Lakes",
        "sub_region": "Canandaigua Lake",
        "name": "The Barrel Room",
        "address": "72 W. Main St.",
        "city": "Victor",
        "state": "NY",
        "zip_code": "14564",
        "phone_number": "585-869-5028",
        "url": "http://www.treleavenwines.com",
        "coordinates": [42.9843521,-77.4112015]
    },
    {
        "type": "winery",
        "region": "Finger Lakes",
        "sub_region": "Canandaigua Lake",
        "name": "Three Brothers Wineries & Estates",
        "address": "7979 Pittsford-Victor Rd.",
        "city": "Victor",
        "state": "NY",
        "zip_code": "14564",
        "phone_number": null,
        "url": "",
        "coordinates": [43.0317709,-77.4413878]
    },
    {
        "type": "winery",
        "region": "Finger Lakes",
        "sub_region": "Cayuga Lake",
        "name": "Americana Vineyards",
        "address": "4367 East Covert Road",
        "city": "Interlaken",
        "state": "NY",
        "zip_code": "14847-9720",
        "phone_number": "&#40;607&#41; 387-6801",
        "url": "http://www.americanavineyards.com",
        "coordinates": [42.5754949,-76.6771446]
    },
    {
        "type": "winery",
        "region": "Finger Lakes",
        "sub_region": "Cayuga Lake",
        "name": "Bellwether Hard Cider",
        "address": "9070 State Route 89",
        "city": "Trumansburg",
        "state": "NY",
        "zip_code": "14886",
        "phone_number": "&#40;607&#41; 387-9464",
        "url": "http://www.cidery.com",
        "coordinates": [42.5847821,-76.6704679]
    },
    {
        "type": "winery",
        "region": "Finger Lakes",
        "sub_region": "Cayuga Lake",
        "name": "Bet the Farm Inc.",
        "address": "381 Main St",
        "city": "Aurora",
        "state": "NY",
        "zip_code": "13026",
        "phone_number": "315-294-5643",
        "url": "http://www.betthefarmny.com",
        "coordinates": [42.754234,-76.702758]
    },
    {
        "type": "winery",
        "region": "Finger Lakes",
        "sub_region": "Cayuga Lake",
        "name": "Buttonwood Grove Winery",
        "address": "5986 State Route 89",
        "city": "Romulus",
        "state": "NY",
        "zip_code": "14541",
        "phone_number": "&#40;607&#41; 869-9760",
        "url": "http://www.buttonwoodgrove.com",
        "coordinates": [42.7338056,-76.7675786]
    },
    {
        "type": "winery",
        "region": "Finger Lakes",
        "sub_region": "Cayuga Lake",
        "name": "Cayuga Ridge Estate Winery",
        "address": "6800 Route 89 at Elm Beach Road",
        "city": "Ovid",
        "state": "NY",
        "zip_code": "14521",
        "phone_number": "&#40;607&#41; 869-5158",
        "url": "http://www.cayugaridgewinery.com",
        "coordinates": [42.6927323,-76.7455698]
    },
    {
        "type": "winery",
        "region": "Finger Lakes",
        "sub_region": "Cayuga Lake",
        "name": "CJS Vineyards",
        "address": "6900 Fosterville Rd.",
        "city": "Auburn",
        "state": "NY",
        "zip_code": "13021",
        "phone_number": "&#40;315&#41; 730-4619",
        "url": "http://www.cjsvineyards.com",
        "coordinates": [42.9517784,-76.6698837]
    },
    {
        "type": "winery",
        "region": "Finger Lakes",
        "sub_region": "Cayuga Lake",
        "name": "Dill's Run Vineyard",
        "address": "3862 State Route 90",
        "city": "Union Springs",
        "state": "NY",
        "zip_code": "13160",
        "phone_number": "315-889-5007",
        "url": "http://www.dillsrun.com",
        "coordinates": [42.8051551,-76.7033518]
    },
    {
        "type": "winery",
        "region": "Finger Lakes",
        "sub_region": "Cayuga Lake",
        "name": "Frontenac Point Vineyard",
        "address": "9501 State Route 89",
        "city": "Trumansburg",
        "state": "NY",
        "zip_code": "14886-9211",
        "phone_number": "&#40;607&#41; 387-9619",
        "url": "http://www.frontenacpoint.com",
        "coordinates": [42.5633975,-76.6470335]
    },
    {
        "type": "winery",
        "region": "Finger Lakes",
        "sub_region": "Cayuga Lake",
        "name": "Glenhaven Farm",
        "address": "6121 Sirrine Road",
        "city": "Trumansburg",
        "state": "NY",
        "zip_code": "14886",
        "phone_number": "&#40;607&#41; 387-9031",
        "url": "http://www.glenhavenfarm.com",
        "coordinates": [42.5075989,-76.7109756]
    },
    {
        "type": "winery",
        "region": "Finger Lakes",
        "sub_region": "Cayuga Lake",
        "name": "Goose Watch Winery",
        "address": "5480 State Route 89",
        "city": "Romulus",
        "state": "NY",
        "zip_code": "14541",
        "phone_number": "&#40;315&#41; 549-2599",
        "url": "http://www.goosewatch.com",
        "coordinates": [42.7586623,-76.7702609]
    },
    {
        "type": "winery",
        "region": "Finger Lakes",
        "sub_region": "Cayuga Lake",
        "name": "Heart & Hands Wine Company",
        "address": "4162 State Route 90N",
        "city": "Union Springs",
        "state": "NY",
        "zip_code": "13160",
        "phone_number": "315-889-8500",
        "url": "http://www.heartandhandswine.com",
        "coordinates": [42.9727241,-76.4272533]
    },
    {
        "type": "winery",
        "region": "Finger Lakes",
        "sub_region": "Cayuga Lake",
        "name": "Hosmer Winery",
        "address": "6999 Route 89",
        "city": "Ovid",
        "state": "NY",
        "zip_code": "14521",
        "phone_number": "&#40;607&#41; 869-3393",
        "url": "http://www.hosmerwinery.com",
        "coordinates": [42.6856586,-76.7449455]
    },
    {
        "type": "winery",
        "region": "Finger Lakes",
        "sub_region": "Cayuga Lake",
        "name": "Izzo's White Barn Winery",
        "address": "6634 Cayuga Road",
        "city": "Cayuga",
        "state": "NY",
        "zip_code": "13034",
        "phone_number": "315-283-8095",
        "url": "http://www.izzoswhitebarnwinery.com",
        "coordinates": [42.9385051,-76.705851]
    },
    {
        "type": "winery",
        "region": "Finger Lakes",
        "sub_region": "Cayuga Lake",
        "name": "King Ferry Winery",
        "address": "658 Lake Road",
        "city": "King Ferry",
        "state": "NY",
        "zip_code": "13081-9799",
        "phone_number": "&#40;315&#41; 364-5100",
        "url": "http://www.treleavenwines.com",
        "coordinates": [42.6503433,-76.6355482]
    },
    {
        "type": "winery",
        "region": "Finger Lakes",
        "sub_region": "Cayuga Lake",
        "name": "Knapp Winery",
        "address": "2770 County Road 128",
        "city": "Romulus",
        "state": "NY",
        "zip_code": "14541",
        "phone_number": "&#40;607&#41; 869-9271",
        "url": "http://www.knappwine.com",
        "coordinates": [42.7674713,-76.8025131]
    },
    {
        "type": "winery",
        "region": "Finger Lakes",
        "sub_region": "Cayuga Lake",
        "name": "Lakeshore Winery",
        "address": "5132 Route 89",
        "city": "Romulus",
        "state": "NY",
        "zip_code": "14541",
        "phone_number": "&#40;315&#41; 549-7075",
        "url": "http://www.lakeshorewinery.com",
        "coordinates": [42.7758157,-76.7696486]
    },
    {
        "type": "winery",
        "region": "Finger Lakes",
        "sub_region": "Cayuga Lake",
        "name": "Long Point Winery",
        "address": "1485 Lake Road",
        "city": "Aurora",
        "state": "NY",
        "zip_code": "13026",
        "phone_number": "&#40;315&#41; 364-6990",
        "url": "http://www.longpointwinery.com",
        "coordinates": [42.7107561,-76.6857103]
    },
    {
        "type": "winery",
        "region": "Finger Lakes",
        "sub_region": "Cayuga Lake",
        "name": "Lucas Vineyards",
        "address": "3862 County Road 150",
        "city": "Interlaken",
        "state": "NY",
        "zip_code": "14847",
        "phone_number": "&#40;607&#41; 532-4825",
        "url": "http://www.lucasvineyards.com",
        "coordinates": [42.6289929,-76.7082717]
    },
    {
        "type": "winery",
        "region": "Finger Lakes",
        "sub_region": "Cayuga Lake",
        "name": "Montezuma Winery & Hidden Marsh Distillery",
        "address": "2981 Auburn Rd",
        "city": "Seneca Falls",
        "state": "NY",
        "zip_code": "13148",
        "phone_number": "&#40;315&#41; 568-8190",
        "url": "http://www.montezumawinery.com",
        "coordinates": [42.9501358,-76.7659921]
    },
    {
        "type": "winery",
        "region": "Finger Lakes",
        "sub_region": "Cayuga Lake",
        "name": "Ports of New York",
        "address": "815 Taber Street",
        "city": "Ithaca",
        "state": "NY",
        "zip_code": "14850",
        "phone_number": "607-220-6317",
        "url": "http://www.portsofnewyork.com",
        "coordinates": [42.4385719,-76.5150757]
    },
    {
        "type": "winery",
        "region": "Finger Lakes",
        "sub_region": "Cayuga Lake",
        "name": "Sheldrake Point Winery",
        "address": "7448 County Road 153",
        "city": "Ovid",
        "state": "NY",
        "zip_code": "14521",
        "phone_number": "&#40;607&#41; 532-9401",
        "url": "http://www.sheldrakepoint.com",
        "coordinates": [42.6635458,-76.7006622]
    },
    {
        "type": "winery",
        "region": "Finger Lakes",
        "sub_region": "Cayuga Lake",
        "name": "Six Mile Creek Vineyard",
        "address": "1551 Slaterville Road",
        "city": "Ithaca",
        "state": "NY",
        "zip_code": "14850",
        "phone_number": "&#40;607&#41; 272-9463",
        "url": "http://www.sixmilecreek.com",
        "coordinates": [42.4158478,-76.4553452]
    },
    {
        "type": "winery",
        "region": "Finger Lakes",
        "sub_region": "Cayuga Lake",
        "name": "Swedish Hill Winery",
        "address": "4565 State Route 414",
        "city": "Romulus",
        "state": "NY",
        "zip_code": "14541",
        "phone_number": "&#40;315&#41; 549-8326",
        "url": "http://www.swedishhill.com",
        "coordinates": [42.6847496,-76.8201218]
    },
    {
        "type": "winery",
        "region": "Finger Lakes",
        "sub_region": "Cayuga Lake",
        "name": "The Apple Station Winery",
        "address": "5279 Cross Rd.",
        "city": "Cayuga",
        "state": "NY",
        "zip_code": "13034",
        "phone_number": "315-889-5184",
        "url": "http://www.theapplestation.com",
        "coordinates": [42.8732796,-76.6853256]
    },
    {
        "type": "winery",
        "region": "Finger Lakes",
        "sub_region": "Cayuga Lake",
        "name": "Thirsty Owl Wine Company",
        "address": "6861 Route 89",
        "city": "Ovid",
        "state": "NY",
        "zip_code": "14521",
        "phone_number": "&#40;607&#41; 869-5805",
        "url": "http://www.thirstyowl.com",
        "coordinates": [42.6914998,-76.7453324]
    },
    {
        "type": "winery",
        "region": "Finger Lakes",
        "sub_region": "Cayuga Lake",
        "name": "Varick Winery & Vineyard",
        "address": "5102 State Route 89",
        "city": "Romulus",
        "state": "NY",
        "zip_code": "14541",
        "phone_number": "&#40;315&#41; 549-8797",
        "url": "http://www.varickwinery.com",
        "coordinates": [42.777411,-76.769774]
    },
    {
        "type": "winery",
        "region": "Finger Lakes",
        "sub_region": "Cayuga Lake",
        "name": "Toro Run Winery",
        "address": "3050 Swick Rd.",
        "city": "Ovid",
        "state": "NY",
        "zip_code": "14521",
        "phone_number": "716-863-3602",
        "url": "http://www.torrorunwinery.com",
        "coordinates": [42.7263866,-76.7624395]
    },
    {
        "type": "winery",
        "region": "Finger Lakes",
        "sub_region": "Conesus & Hemlock Lakes",
        "name": "Deer Run Winery",
        "address": "3772 West Lake Road",
        "city": "Geneseo",
        "state": "NY",
        "zip_code": "14454",
        "phone_number": "&#40;585&#41; 346-0850",
        "url": "http://www.deerrunwinery.com",
        "coordinates": [42.8228607,-77.7183914]
    },
    {
        "type": "winery",
        "region": "Finger Lakes",
        "sub_region": "Conesus & Hemlock Lakes",
        "name": "Eagle Crest Vineyards, Inc.",
        "address": "7107 Vineyard Road",
        "city": "Conesus",
        "state": "NY",
        "zip_code": "14435",
        "phone_number": "&#40;585&#41; 346-2321",
        "url": "http://www.eaglecrestvineyards.com",
        "coordinates": [42.7398872,-77.622818]
    },
    {
        "type": "winery",
        "region": "Finger Lakes",
        "sub_region": "Keuka Lake",
        "name": "Azure Hill Winery",
        "address": "8716 Gallagher Rd.",
        "city": "Hammondsport",
        "state": "NY",
        "zip_code": "14840",
        "phone_number": "607-868-5702",
        "url": "http://www.azurehillwinery.com",
        "coordinates": [42.4968796,-77.1820984]
    },
    {
        "type": "winery",
        "region": "Finger Lakes",
        "sub_region": "Keuka Lake",
        "name": "Barrington Cellars",
        "address": "2794 Gray Road",
        "city": "Penn Yan",
        "state": "NY",
        "zip_code": "14527",
        "phone_number": "315-536-9686",
        "url": "http://www.barringtoncellars.com",
        "coordinates": [42.549096,-77.0911228]
    },
    {
        "type": "winery",
        "region": "Finger Lakes",
        "sub_region": "Keuka Lake",
        "name": "Bully Hill Vineyards, Inc.",
        "address": "8843 G.H. Taylor Memorial Drive",
        "city": "Hammondsport",
        "state": "NY",
        "zip_code": "14840",
        "phone_number": "&#40;607&#41; 868-3610",
        "url": "http://www.bullyhill.com",
        "coordinates": [42.4084282,-77.2239304]
    },
    {
        "type": "winery",
        "region": "Finger Lakes",
        "sub_region": "Keuka Lake",
        "name": "Chateau Frank, Inc.",
        "address": "9683 Middle Road",
        "city": "Hammondsport",
        "state": "NY",
        "zip_code": "14840",
        "phone_number": "&#40;607&#41; 868-4884",
        "url": "http://www.drfrankwines.com",
        "coordinates": [42.4709053,-77.1809616]
    },
    {
        "type": "winery",
        "region": "Finger Lakes",
        "sub_region": "Keuka Lake",
        "name": "Chateau Renaissance Wine Cellars",
        "address": "7494 Fish Hatchery Rd.",
        "city": "Hammondsport",
        "state": "NY",
        "zip_code": "14840",
        "phone_number": "&#40;607&#41; 569-3609",
        "url": "http://www.winesparkle.com",
        "coordinates": [42.3859673,-77.2648468]
    },
    {
        "type": "winery",
        "region": "Finger Lakes",
        "sub_region": "Keuka Lake",
        "name": "Crooked Lake Winery",
        "address": "14248 St Route 54",
        "city": "Hammondsport",
        "state": "NY",
        "zip_code": "14840",
        "phone_number": "&#40;607&#41; 243-5582",
        "url": "",
        "coordinates": [42.483875,-77.129104]
    },
    {
        "type": "winery",
        "region": "Finger Lakes",
        "sub_region": "Keuka Lake",
        "name": "Deep Root Vineyard",
        "address": "10391 Cross St.",
        "city": "Hammondsport",
        "state": "NY",
        "zip_code": "14840",
        "phone_number": "315-651-2201",
        "url": "Find us on Facebook",
        "coordinates": [42.5054779,-77.1616974]
    },
    {
        "type": "winery",
        "region": "Finger Lakes",
        "sub_region": "Keuka Lake",
        "name": "Dr. Frank Wine Cellars",
        "address": "9749 Middle Road",
        "city": "Hammondsport",
        "state": "NY",
        "zip_code": "14840",
        "phone_number": "&#40;607&#41; 868-4884",
        "url": "http://www.drfrankwines.com",
        "coordinates": [42.4735718,-77.1821289]
    },
    {
        "type": "winery",
        "region": "Finger Lakes",
        "sub_region": "Keuka Lake",
        "name": "Heron Hill Winery",
        "address": "9301 County Route 76",
        "city": "Hammondsport",
        "state": "NY",
        "zip_code": "14840",
        "phone_number": "&#40;607&#41; 868-4241",
        "url": "http://www.heronhill.com",
        "coordinates": [42.4490242,-77.1995621]
    },
    {
        "type": "winery",
        "region": "Finger Lakes",
        "sub_region": "Keuka Lake",
        "name": "Hunt Country Vineyards",
        "address": "4021 Italy Hill Road",
        "city": "Branchport",
        "state": "NY",
        "zip_code": "14418",
        "phone_number": "&#40;315&#41; 595-2812",
        "url": "http://www.huntwines.com",
        "coordinates": [42.5984875,-77.1723703]
    },
    {
        "type": "winery",
        "region": "Finger Lakes",
        "sub_region": "Keuka Lake",
        "name": "Keuka Lake Vineyards",
        "address": "8882 County Rte 76",
        "city": "Hammondsport",
        "state": "NY",
        "zip_code": "14840",
        "phone_number": "607-868-4100",
        "url": "http://www.klvineyards.com",
        "coordinates": [42.4314858,-77.2000627]
    },
    {
        "type": "winery",
        "region": "Finger Lakes",
        "sub_region": "Keuka Lake",
        "name": "Keuka Spring Vineyards",
        "address": "243 State Route 54 &#40;East Lake Rd.&#41;",
        "city": "Penn Yan",
        "state": "NY",
        "zip_code": "14527",
        "phone_number": "&#40;315&#41; 536-3147",
        "url": "http://www.keukaspringwinery.com",
        "coordinates": [42.6253586,-77.0681763]
    },
    {
        "type": "winery",
        "region": "Finger Lakes",
        "sub_region": "Keuka Lake",
        "name": "McGregor Vineyard Winery",
        "address": "5503 Dutch Street",
        "city": "Dundee",
        "state": "NY",
        "zip_code": "14837",
        "phone_number": "&#40;607&#41; 292-3999",
        "url": "http://www.mcgregorwinery.com",
        "coordinates": [42.4978485,-77.1033173]
    },
    {
        "type": "winery",
        "region": "Finger Lakes",
        "sub_region": "Keuka Lake",
        "name": "Pleasant Valley Wine Company",
        "address": "8260 Pleasant Valley Rd",
        "city": "Hammondsport",
        "state": "NY",
        "zip_code": "14840",
        "phone_number": "&#40;607&#41; 569-6111",
        "url": "http://www.pleasantvalleywine.com",
        "coordinates": [42.4022035,-77.2513492]
    },
    {
        "type": "winery",
        "region": "Finger Lakes",
        "sub_region": "Keuka Lake",
        "name": "Ravines Wine Cellars",
        "address": "14630 State Route 54",
        "city": "Hammondsport",
        "state": "NY",
        "zip_code": "14840",
        "phone_number": "&#40;607&#41; 292-7007",
        "url": "http://www.ravineswinecellars.com",
        "coordinates": [42.4893951,-77.1183243]
    },
    {
        "type": "winery",
        "region": "Finger Lakes",
        "sub_region": "Keuka Lake",
        "name": "Rooster Hill Vineyards",
        "address": "489 Route 54 South",
        "city": "Penn Yan",
        "state": "NY",
        "zip_code": "14527",
        "phone_number": "&#40;315&#41; 536-4773",
        "url": "http://www.roosterhill.com",
        "coordinates": [42.6636314,-77.0552979]
    },
    {
        "type": "winery",
        "region": "Finger Lakes",
        "sub_region": "Keuka Lake",
        "name": "Stever Hill Vineyards",
        "address": "3962 Stever Hill Road",
        "city": "Branchport",
        "state": "NY",
        "zip_code": "14418",
        "phone_number": "&#40;315&#41; 595-2230",
        "url": "http://www.steverhillvineyard.com",
        "coordinates": [42.5864258,-77.167305]
    },
    {
        "type": "winery",
        "region": "Finger Lakes",
        "sub_region": "Keuka Lake",
        "name": "Yates Cellars",
        "address": "3170 Route 54A",
        "city": "Bluff Point",
        "state": "NY",
        "zip_code": "14478",
        "phone_number": "&#40;315&#41; 536-6065",
        "url": "http://www.yatescellars.com",
        "coordinates": [42.6075706,-77.1151276]
    },
    {
        "type": "winery",
        "region": "Finger Lakes",
        "sub_region": "Keuka Lake",
        "name": "Domaine LeSeurre",
        "address": "13920 State Route 54",
        "city": "Hammondsport",
        "state": "NY",
        "zip_code": "14840",
        "phone_number": "&#40;607&#41; 292-3920",
        "url": "http://www.domaineleseurre.com",
        "coordinates": [42.4837379,-77.138382]
    },
    {
        "type": "winery",
        "region": "Finger Lakes",
        "sub_region": "Keuka Lake",
        "name": "Lime Berry Winery",
        "address": "10014 Day Rd.",
        "city": "Hammondsport",
        "state": "NY",
        "zip_code": "14840",
        "phone_number": "607-569-3300",
        "url": "http://www.limeberrywine.com",
        "coordinates": [42.484333,-77.1368332]
    },
    {
        "type": "winery",
        "region": "Finger Lakes",
        "sub_region": "Keuka Lake",
        "name": "Point of the Bluff Vineyard, LLC",
        "address": "799 W. Bluff Dr.",
        "city": "Pulteney",
        "state": "NY",
        "zip_code": "14840",
        "phone_number": null,
        "url": "http://www.pointofthebluffvineyards.com",
        "coordinates": [42.5060935,-77.1428324]
    },
    {
        "type": "winery",
        "region": "Finger Lakes",
        "sub_region": "Keuka Lake",
        "name": "Vineyard View Winery",
        "address": "2971 Williams Hill Road",
        "city": "Keuka Park",
        "state": "NY",
        "zip_code": "14478",
        "phone_number": "315-694-7262",
        "url": "http://www.vineyardviewwinery.com",
        "coordinates": [42.6235943,-77.1025188]
    },
    {
        "type": "winery",
        "region": "Finger Lakes",
        "sub_region": "Owasco Lake",
        "name": "Chateau Dusseau",
        "address": "5292 Erron Hill Road",
        "city": "Locke",
        "state": "NY",
        "zip_code": "13092",
        "phone_number": "&#40;315&#41; 497-9463",
        "url": "http://www.chateaudusseau.com",
        "coordinates": [42.6622047,-76.3929977]
    },
    {
        "type": "winery",
        "region": "Finger Lakes",
        "sub_region": "Seneca Lake",
        "name": "Anthony Road Wine Company",
        "address": "1020 Anthony Road",
        "city": "Penn Yan",
        "state": "NY",
        "zip_code": "14527",
        "phone_number": "&#40;315&#41; 536-2182",
        "url": "http://www.anthonyroadwine.com",
        "coordinates": [42.7049026,-76.9736938]
    },
    {
        "type": "winery",
        "region": "Finger Lakes",
        "sub_region": "Seneca Lake",
        "name": "Ashley Lynn Winery",
        "address": "827 State Route 318",
        "city": "Waterloo",
        "state": "NY",
        "zip_code": "13165",
        "phone_number": "315-856-8026",
        "url": "http://www.ashleywines.com",
        "coordinates": [42.9545581,-76.9095386]
    },
    {
        "type": "winery",
        "region": "Finger Lakes",
        "sub_region": "Seneca Lake",
        "name": "Atwater Estate Vineyards",
        "address": "5055 State Route 414",
        "city": "Burdett",
        "state": "NY",
        "zip_code": "14818",
        "phone_number": "&#40;607&#41; 546-8463",
        "url": "http://www.atwatervineyards.com",
        "coordinates": [42.4781303,-76.8756409]
    },
    {
        "type": "winery",
        "region": "Finger Lakes",
        "sub_region": "Seneca Lake",
        "name": "Barnstormer Winery",
        "address": "4184 State Route 14",
        "city": "Rock Stream",
        "state": "NY",
        "zip_code": "14878",
        "phone_number": "607-243-4008",
        "url": "http://www.barnstormerwinery.com",
        "coordinates": [42.4361954,-76.9048538]
    },
    {
        "type": "winery",
        "region": "Finger Lakes",
        "sub_region": "Seneca Lake",
        "name": "Belhurst Estate Winery",
        "address": "4069 Route 14 South",
        "city": "Geneva",
        "state": "NY",
        "zip_code": "14456-",
        "phone_number": "&#40;315&#41; 781-0201",
        "url": "http://www.belhurst.com",
        "coordinates": [42.8526917,-77.0105591]
    },
    {
        "type": "winery",
        "region": "Finger Lakes",
        "sub_region": "Seneca Lake",
        "name": "Bellangelo",
        "address": "150 Poplar Point Road",
        "city": "Dundee",
        "state": "NY",
        "zip_code": "14837",
        "phone_number": "&#40;607&#41; 243-8602",
        "url": "http://www.bellangelo.com",
        "coordinates": [42.5661888,-76.9180374]
    },
    {
        "type": "winery",
        "region": "Finger Lakes",
        "sub_region": "Seneca Lake",
        "name": "Billsboro Winery",
        "address": "4760 West Lake Road",
        "city": "Geneva",
        "state": "NY",
        "zip_code": "14456",
        "phone_number": "&#40;315&#41; 789-9538",
        "url": "http://www.billsborowinery.com",
        "coordinates": [42.7980593,-76.9777612]
    },
    {
        "type": "winery",
        "region": "Finger Lakes",
        "sub_region": "Seneca Lake",
        "name": "Billsboro Winery at Rose Hill Mansion",
        "address": "3365 State Route 96A",
        "city": "Waterloo",
        "state": "NY",
        "zip_code": "13165",
        "phone_number": "315-789-1878",
        "url": "http://www.billsborowinery.com",
        "coordinates": [42.8764,-76.9429779]
    },
    {
        "type": "winery",
        "region": "Finger Lakes",
        "sub_region": "Seneca Lake",
        "name": "Bloomer Creek Vineyard",
        "address": "5301 State Route 414",
        "city": "Hector",
        "state": "NY",
        "zip_code": "14841",
        "phone_number": "&#40;607&#41; 546-5027",
        "url": "http://www.bloomercreek.com",
        "coordinates": [42.4897156,-76.8703766]
    },
    {
        "type": "winery",
        "region": "Finger Lakes",
        "sub_region": "Seneca Lake",
        "name": "Boundary Breaks",
        "address": "1428 Porter Covert Rd.",
        "city": "Lodi",
        "state": "NY",
        "zip_code": "14860",
        "phone_number": "917-885-6682",
        "url": "http://www.boundarybreaks.com",
        "coordinates": [42.6297761,-76.8713379]
    },
    {
        "type": "winery",
        "region": "Finger Lakes",
        "sub_region": "Seneca Lake",
        "name": "Castel Grisch Estate Winery",
        "address": "3380 County Route 28",
        "city": "Watkins Glen",
        "state": "NY",
        "zip_code": "14891",
        "phone_number": "&#40;607&#41; 535-9614",
        "url": "http://www.castelgrisch.com",
        "coordinates": [42.3968582,-76.9007645]
    },
    {
        "type": "winery",
        "region": "Finger Lakes",
        "sub_region": "Seneca Lake",
        "name": "Catharine Valley Winery",
        "address": "4201 Route 414",
        "city": "Burdett",
        "state": "NY",
        "zip_code": "14818",
        "phone_number": "&#40;607&#41; 546-5300",
        "url": "http://www.catharinevalley.com",
        "coordinates": [42.4363708,-76.8673401]
    },
    {
        "type": "winery",
        "region": "Finger Lakes",
        "sub_region": "Seneca Lake",
        "name": "Caywood Vineyards",
        "address": "9666 Route 414",
        "city": "Caywood",
        "state": "NY",
        "zip_code": "14841",
        "phone_number": "&#40;607&#41; 582-7230",
        "url": "http://www.caywoodvineyards.com",
        "coordinates": [42.5650711,-76.8628693]
    },
    {
        "type": "winery",
        "region": "Finger Lakes",
        "sub_region": "Seneca Lake",
        "name": "Chateau LaFayette Reneau",
        "address": "5081 Route 414",
        "city": "Hector",
        "state": "NY",
        "zip_code": "14841",
        "phone_number": "&#40;607&#41; 546-2062",
        "url": "http://www.clrwine.com",
        "coordinates": [42.4799862,-76.8696059]
    },
    {
        "type": "winery",
        "region": "Finger Lakes",
        "sub_region": "Seneca Lake",
        "name": "Damiani Wine Cellars",
        "address": "4704 State Route 414",
        "city": "Burdett",
        "state": "NY",
        "zip_code": "14818",
        "phone_number": "&#40;607&#41; 546-5557",
        "url": "http://www.damianiwinecellars.com",
        "coordinates": [42.4611397,-76.8644409]
    },
    {
        "type": "winery",
        "region": "Finger Lakes",
        "sub_region": "Seneca Lake",
        "name": "Eremita Winery",
        "address": "2155 East Church St.",
        "city": "Lodi",
        "state": "NY",
        "zip_code": "14860",
        "phone_number": "&#40;607&#41; 474-5002",
        "url": "http://www.EremitaWinery.com",
        "coordinates": [42.6151601,-76.8220671]
    },
    {
        "type": "winery",
        "region": "Finger Lakes",
        "sub_region": "Seneca Lake",
        "name": "Forge Cellars",
        "address": "5610 State Route 414",
        "city": "Hector",
        "state": "NY",
        "zip_code": "14841",
        "phone_number": "607-387-1045",
        "url": "http://www.forgecellars.wordpress.com/forge-press/",
        "coordinates": [42.5050659,-76.8751373]
    },
    {
        "type": "winery",
        "region": "Finger Lakes",
        "sub_region": "Seneca Lake",
        "name": "Fox Run Vineyards",
        "address": "670 State Route 14",
        "city": "Penn Yan",
        "state": "NY",
        "zip_code": "14527",
        "phone_number": "&#40;315&#41; 536-4616",
        "url": "http://www.foxrunvineyards.com",
        "coordinates": [42.7316132,-76.9759521]
    },
    {
        "type": "winery",
        "region": "Finger Lakes",
        "sub_region": "Seneca Lake",
        "name": "Fruit Yard Winery",
        "address": "5060 State Route 14",
        "city": "Dundee",
        "state": "NY",
        "zip_code": "14837",
        "phone_number": "607-243-8866",
        "url": "http://www.FruitYardWinery.com",
        "coordinates": [42.5217247,-76.9213715]
    },
    {
        "type": "winery",
        "region": "Finger Lakes",
        "sub_region": "Seneca Lake",
        "name": "Fulkerson Winery",
        "address": "5576 State Route 14",
        "city": "Dundee",
        "state": "NY",
        "zip_code": "14837",
        "phone_number": "&#40;607&#41; 243-7883",
        "url": "http://www.fulkersonwinery.com",
        "coordinates": [42.4930472,-76.924046]
    },
    {
        "type": "winery",
        "region": "Finger Lakes",
        "sub_region": "Seneca Lake",
        "name": "Glenora Wine Cellars",
        "address": "5435 Route 14",
        "city": "Dundee",
        "state": "NY",
        "zip_code": "14837",
        "phone_number": "&#40;607&#41; 243-9500",
        "url": "http://www.glenora.com",
        "coordinates": [42.5005084,-76.9242766]
    },
    {
        "type": "winery",
        "region": "Finger Lakes",
        "sub_region": "Seneca Lake",
        "name": "Hazlitt 1852 Vineyards, Inc.",
        "address": "5712 State Route 414",
        "city": "Hector",
        "state": "NY",
        "zip_code": "14841",
        "phone_number": "&#40;607&#41; 546-9463",
        "url": "http://www.hazlitt1852.com",
        "coordinates": [42.5102615,-76.8754578]
    },
    {
        "type": "winery",
        "region": "Finger Lakes",
        "sub_region": "Seneca Lake",
        "name": "Hector Wine Company",
        "address": "5610 State Route 414",
        "city": "Hector",
        "state": "NY",
        "zip_code": "14841",
        "phone_number": "607-387-1045",
        "url": "http://www.hectorwinecompany.com",
        "coordinates": [42.5050659,-76.8751373]
    },
    {
        "type": "winery",
        "region": "Finger Lakes",
        "sub_region": "Seneca Lake",
        "name": "Hermann J. Wiemer Vineyard",
        "address": "3962 State Route 14",
        "city": "Dundee",
        "state": "NY",
        "zip_code": "14837",
        "phone_number": "&#40;607&#41; 243-7971",
        "url": "http://www.wiemer.com",
        "coordinates": [42.5104485,-76.9235001]
    },
    {
        "type": "winery",
        "region": "Finger Lakes",
        "sub_region": "Seneca Lake",
        "name": "Heron Hill Tasting Room on Seneca Lake",
        "address": "3586 State Route 14",
        "city": "Himrod",
        "state": "NY",
        "zip_code": "14842",
        "phone_number": "&#40;607&#41; 243-7109",
        "url": "http://www.heronhill.com",
        "coordinates": [42.5905724,-76.9414673]
    },
    {
        "type": "winery",
        "region": "Finger Lakes",
        "sub_region": "Seneca Lake",
        "name": "Hickory Hollow Wine Cellars/Highland Cellars",
        "address": "5289 State Route 14",
        "city": "Dundee",
        "state": "NY",
        "zip_code": "14837",
        "phone_number": "&#40;607&#41; 243-9114",
        "url": "http://www.hickoryhollowwine.com",
        "coordinates": [42.5106116,-76.923419]
    },
    {
        "type": "winery",
        "region": "Finger Lakes",
        "sub_region": "Seneca Lake",
        "name": "Idol Ridge Winery",
        "address": "9059 State Route 414",
        "city": "Lodi",
        "state": "NY",
        "zip_code": "14860",
        "phone_number": "607-582-7773",
        "url": "http://www.idolridge.com",
        "coordinates": [42.5842014,-76.853933]
    },
    {
        "type": "winery",
        "region": "Finger Lakes",
        "sub_region": "Seneca Lake",
        "name": "J. R. Dill Winery",
        "address": "4922 State Route 414",
        "city": "Burdett",
        "state": "NY",
        "zip_code": "14818",
        "phone_number": "607-546-5757",
        "url": "http://www.jrdillwinery.com",
        "coordinates": [42.4719505,-76.8666]
    },
    {
        "type": "winery",
        "region": "Finger Lakes",
        "sub_region": "Seneca Lake",
        "name": "Kemmeter Wines",
        "address": "1030 Larzelere Rd.",
        "city": "Penn Yan",
        "state": "NY",
        "zip_code": "14527",
        "phone_number": "315-521-3897",
        "url": "http://www.kemmeterwines.com",
        "coordinates": [42.7071648,-76.9776764]
    },
    {
        "type": "winery",
        "region": "Finger Lakes",
        "sub_region": "Seneca Lake",
        "name": "Kings Garden Vineyards",
        "address": "9085 State Route 414",
        "city": "Lodi",
        "state": "NY",
        "zip_code": "14860",
        "phone_number": "607-582-7444",
        "url": "http://www.kingsgardenvineyards.com",
        "coordinates": [42.5828402,-76.8551501]
    },
    {
        "type": "winery",
        "region": "Finger Lakes",
        "sub_region": "Seneca Lake",
        "name": "Lacey Magruder Vineyard & Winery",
        "address": "462 Armstrong Rd.",
        "city": "Geneva",
        "state": "NY",
        "zip_code": "14456",
        "phone_number": "585-260-1850",
        "url": "http://www.laceymagrudervineyardandwinery.com",
        "coordinates": [42.8021317,-76.9902878]
    },
    {
        "type": "winery",
        "region": "Finger Lakes",
        "sub_region": "Seneca Lake",
        "name": "Lakewood Vineyards",
        "address": "4024 State Route 14",
        "city": "Watkins Glen",
        "state": "NY",
        "zip_code": "14891",
        "phone_number": "&#40;607&#41; 535-9252",
        "url": "http://www.lakewoodvineyards.com",
        "coordinates": [42.4252892,-76.9055786]
    },
    {
        "type": "winery",
        "region": "Finger Lakes",
        "sub_region": "Seneca Lake",
        "name": "Lamoreaux Landing Wine Cellars",
        "address": "9224 State Route 414",
        "city": "Lodi",
        "state": "NY",
        "zip_code": "14860",
        "phone_number": "&#40;607&#41; 582-6011",
        "url": "http://www.lamoreauxwine.com",
        "coordinates": [42.5776991,-76.8574622]
    },
    {
        "type": "winery",
        "region": "Finger Lakes",
        "sub_region": "Seneca Lake",
        "name": "Leidenfrost Vineyards",
        "address": "5677 Route 414",
        "city": "Hector",
        "state": "NY",
        "zip_code": "14841",
        "phone_number": "&#40;607&#41; 546-2800",
        "url": "http://www.leidenfrostwine.com",
        "coordinates": [42.5078011,-76.8790283]
    },
    {
        "type": "winery",
        "region": "Finger Lakes",
        "sub_region": "Seneca Lake",
        "name": "Magnus Ridge Winery",
        "address": "6148 State Route 14",
        "city": "Rock Stream",
        "state": "NY",
        "zip_code": "14878",
        "phone_number": "607-243-3611",
        "url": "http://www.magnusridge.com",
        "coordinates": [42.4651031,-76.9182358]
    },
    {
        "type": "winery",
        "region": "Finger Lakes",
        "sub_region": "Seneca Lake",
        "name": "Miles Wine Cellars, Caf & Inn",
        "address": "168 Randall Crossing Road",
        "city": "Himrod",
        "state": "NY",
        "zip_code": "14842",
        "phone_number": "&#40;607&#41; 243-7742",
        "url": "http://www.mileswinecellars.com",
        "coordinates": [42.617045,-76.9223683]
    },
    {
        "type": "winery",
        "region": "Finger Lakes",
        "sub_region": "Seneca Lake",
        "name": "Monello LLC",
        "address": "701 State Route 14",
        "city": "Penn Yan",
        "state": "NY",
        "zip_code": "14527",
        "phone_number": "585-536-9785",
        "url": "",
        "coordinates": [42.7304026,-76.97145]
    },
    {
        "type": "winery",
        "region": "Finger Lakes",
        "sub_region": "Seneca Lake",
        "name": "Penguin Bay Winery",
        "address": "6075 State Route 414",
        "city": "Hector",
        "state": "NY",
        "zip_code": "14841",
        "phone_number": "&#40;607&#41; 546-5115",
        "url": "http://www.penguinbaywinery.com",
        "coordinates": [42.5276524,-76.8753545]
    },
    {
        "type": "winery",
        "region": "Finger Lakes",
        "sub_region": "Seneca Lake",
        "name": "Pompous Ass Wine Company",
        "address": "4499 State Route 14",
        "city": "Rock Stream",
        "state": "NY",
        "zip_code": "14878",
        "phone_number": "607-535-4277",
        "url": "http://www.pompousasswinery.com",
        "coordinates": [42.4508476,-76.9104156]
    },
    {
        "type": "winery",
        "region": "Finger Lakes",
        "sub_region": "Seneca Lake",
        "name": "Poplar Ridge Vineyards",
        "address": "9782 Route 414",
        "city": "Valois",
        "state": "NY",
        "zip_code": "14888",
        "phone_number": "&#40;607&#41; 582-6421",
        "url": "http://www.bagleysprv.com",
        "coordinates": [42.5129395,-76.8764114]
    },
    {
        "type": "winery",
        "region": "Finger Lakes",
        "sub_region": "Seneca Lake",
        "name": "Prejean Winery Inc.",
        "address": "2634 State Route 14",
        "city": "Penn Yan",
        "state": "NY",
        "zip_code": "14527",
        "phone_number": "&#40;315&#41; 536-7524",
        "url": "http://www.prejeanwinery.com",
        "coordinates": [42.6366959,-76.9462128]
    },
    {
        "type": "winery",
        "region": "Finger Lakes",
        "sub_region": "Seneca Lake",
        "name": "Rasta Ranch",
        "address": "5882 Route 414",
        "city": "Hector",
        "state": "NY",
        "zip_code": "14841",
        "phone_number": "&#40;607&#41; 546-2974",
        "url": "http://www.stayfingerlakes.com/wine/wineries/rasranch.htm",
        "coordinates": [42.5175934,-76.8697052]
    },
    {
        "type": "winery",
        "region": "Finger Lakes",
        "sub_region": "Seneca Lake",
        "name": "Ravines Wine Cellars on Seneca Lake",
        "address": "400 Barracks Rd.",
        "city": "Geneva",
        "state": "NY",
        "zip_code": "14456",
        "phone_number": "315-781-7007",
        "url": "http://www.ravineswinecellars.com",
        "coordinates": [42.8458402,-76.994517]
    },
    {
        "type": "winery",
        "region": "Finger Lakes",
        "sub_region": "Seneca Lake",
        "name": "Red Newt Cellars, Inc.",
        "address": "3675 Tichenor Road",
        "city": "Hector",
        "state": "NY",
        "zip_code": "14841",
        "phone_number": "&#40;607&#41; 546-4100",
        "url": "http://www.rednewt.com",
        "coordinates": [42.5019531,-76.8671875]
    },
    {
        "type": "winery",
        "region": "Finger Lakes",
        "sub_region": "Seneca Lake",
        "name": "Red Tail Ridge Winery",
        "address": "846 State Route 14",
        "city": "Penn Yan",
        "state": "NY",
        "zip_code": "14527",
        "phone_number": "&#40;315&#41; 536-4580",
        "url": "http://www.redtailridgewinery.com",
        "coordinates": [42.7228661,-76.9782791]
    },
    {
        "type": "winery",
        "region": "Finger Lakes",
        "sub_region": "Seneca Lake",
        "name": "Rock Stream Vineyards",
        "address": "162 Fir Tree Point Road",
        "city": "Rock Stream",
        "state": "NY",
        "zip_code": "14878",
        "phone_number": "&#40;607&#41; 243-5395",
        "url": "http://www.rockstreamvineyards.com",
        "coordinates": [42.4723663,-76.9190369]
    },
    {
        "type": "winery",
        "region": "Finger Lakes",
        "sub_region": "Seneca Lake",
        "name": "Ryan William Vineyard and Winery",
        "address": "5247 State Route 414",
        "city": "Hector",
        "state": "NY",
        "zip_code": "14841",
        "phone_number": "607-882-9098",
        "url": "http://www.ryanwilliam.com",
        "coordinates": [42.487548,-76.8702194]
    },
    {
        "type": "winery",
        "region": "Finger Lakes",
        "sub_region": "Seneca Lake",
        "name": "Seneca Harbor Wine Center",
        "address": "2 North Franklin Street",
        "city": "Watkins Glen",
        "state": "NY",
        "zip_code": "14891",
        "phone_number": "&#40;607&#41; 535-4867",
        "url": "http://www.senecaharborwine.com",
        "coordinates": [42.38311,-76.8744812]
    },
    {
        "type": "winery",
        "region": "Finger Lakes",
        "sub_region": "Seneca Lake",
        "name": "Seneca Shore Wine Cellars",
        "address": "929 Davy Road",
        "city": "Penn Yan",
        "state": "NY",
        "zip_code": "14527",
        "phone_number": "&#40;315&#41; 536-0882",
        "url": "http://www.senecawine.com",
        "coordinates": [42.7142448,-76.9704819]
    },
    {
        "type": "winery",
        "region": "Finger Lakes",
        "sub_region": "Seneca Lake",
        "name": "Serenity Vineyards",
        "address": "930 Davy Road",
        "city": "Penn Yan",
        "state": "NY",
        "zip_code": "14527",
        "phone_number": "315-536-6701",
        "url": "http://www.serenityvineyards1977.com",
        "coordinates": [42.7189484,-76.9701996]
    },
    {
        "type": "winery",
        "region": "Finger Lakes",
        "sub_region": "Seneca Lake",
        "name": "Shalestone Vineyards, LLC",
        "address": "9681 State Route 414",
        "city": "Lodi",
        "state": "NY",
        "zip_code": "14860",
        "phone_number": "&#40;607&#41; 582-6600",
        "url": "http://www.shalestonevineyards.com",
        "coordinates": [42.5556607,-76.8662846]
    },
    {
        "type": "winery",
        "region": "Finger Lakes",
        "sub_region": "Seneca Lake",
        "name": "Shaw Vineyard",
        "address": "3901 State Rt. 14",
        "city": "Himrod",
        "state": "NY",
        "zip_code": "14842",
        "phone_number": "&#40;607&#41; 481-0089",
        "url": "http://www.shawvineyard.com",
        "coordinates": [42.5762299,-76.9295552]
    },
    {
        "type": "winery",
        "region": "Finger Lakes",
        "sub_region": "Seneca Lake",
        "name": "Silver Springs Winery",
        "address": "4408 State Rt. 414",
        "city": "Burdett",
        "state": "NY",
        "zip_code": "14818",
        "phone_number": "&#40;607&#41; 351-7650",
        "url": "http://www.silverspringswinery.com",
        "coordinates": [42.4486237,-76.8596344]
    },
    {
        "type": "winery",
        "region": "Finger Lakes",
        "sub_region": "Seneca Lake",
        "name": "Silver Thread Vineyard",
        "address": "1401 Caywood Road",
        "city": "Lodi",
        "state": "NY",
        "zip_code": "14860",
        "phone_number": "&#40;607&#41; 582-6116",
        "url": "http://www.silverthreadwine.com",
        "coordinates": [42.5616554,-76.8783318]
    },
    {
        "type": "winery",
        "region": "Finger Lakes",
        "sub_region": "Seneca Lake",
        "name": "South Hill Cider",
        "address": "4115 Newtown Road",
        "city": "Burdett",
        "state": "NY",
        "zip_code": "14818",
        "phone_number": "607-279-7563",
        "url": "http://www.southhillcider.com",
        "coordinates": [42.433136,-76.7670059]
    },
    {
        "type": "winery",
        "region": "Finger Lakes",
        "sub_region": "Seneca Lake",
        "name": "Standing Stone Vineyards",
        "address": "9934 State Route 414",
        "city": "Hector",
        "state": "NY",
        "zip_code": "14841",
        "phone_number": "&#40;607&#41; 582-6051",
        "url": "http://www.standingstonewines.com",
        "coordinates": [42.5445429,-76.8726616]
    },
    {
        "type": "winery",
        "region": "Finger Lakes",
        "sub_region": "Seneca Lake",
        "name": "Three Brothers Wineries & Estates",
        "address": "623 Lerch Road",
        "city": "Geneva",
        "state": "NY",
        "zip_code": "14456",
        "phone_number": "&#40;315&#41; 585-4432",
        "url": "http://www.3brotherswinery.com",
        "coordinates": [42.8204571,-76.9228383]
    },
    {
        "type": "winery",
        "region": "Finger Lakes",
        "sub_region": "Seneca Lake",
        "name": "Tickle Hill Winery",
        "address": "3839 Ball Diamond Road",
        "city": "Hector",
        "state": "NY",
        "zip_code": "14841",
        "phone_number": "&#40;607&#41; 546-7740",
        "url": "http://www.ticklehillwinery.com",
        "coordinates": [42.5131758,-76.8564543]
    },
    {
        "type": "winery",
        "region": "Finger Lakes",
        "sub_region": "Seneca Lake",
        "name": "Torrey Ridge Winery",
        "address": "2770 State Route 14",
        "city": "Penn Yan",
        "state": "NY",
        "zip_code": "14527",
        "phone_number": "&#40;315&#41; 536-1210",
        "url": "http://www.torreyridgewinery.com",
        "coordinates": [42.628891,-76.9487228]
    },
    {
        "type": "winery",
        "region": "Finger Lakes",
        "sub_region": "Seneca Lake",
        "name": "Earle Estates Meadery",
        "address": "2770 State Route 14",
        "city": "Penn Yan",
        "state": "NY",
        "zip_code": "14527",
        "phone_number": "&#40;315&#41; 536-1210",
        "url": "http://www.torreyridgewinery.com",
        "coordinates": [42.628891,-76.9487228]
    },
    {
        "type": "winery",
        "region": "Finger Lakes",
        "sub_region": "Seneca Lake",
        "name": "Ventosa Vineyards",
        "address": "3440 State Route 96A",
        "city": "Geneva",
        "state": "NY",
        "zip_code": "14456",
        "phone_number": "&#40;315&#41; 719-0000",
        "url": "http://www.ventosavineyards.com",
        "coordinates": [42.859105,-76.9363084]
    },
    {
        "type": "winery",
        "region": "Finger Lakes",
        "sub_region": "Seneca Lake",
        "name": "Wagner Vineyards",
        "address": "9322 State Route 414",
        "city": "Lodi",
        "state": "NY",
        "zip_code": "14860",
        "phone_number": "&#40;607&#41; 582-6450",
        "url": "http://www.wagnervineyards.com",
        "coordinates": [42.5729596,-76.8581012]
    },
    {
        "type": "winery",
        "region": "Finger Lakes",
        "sub_region": "Seneca Lake",
        "name": "White Springs Winery",
        "address": "4200 State Route 14 South",
        "city": "Geneva",
        "state": "NY",
        "zip_code": "14456",
        "phone_number": "315-781-9463",
        "url": "http://www.whitespringswinery.com",
        "coordinates": [42.8526917,-77.0105591]
    },
    {
        "type": "winery",
        "region": "Finger Lakes",
        "sub_region": "Seneca Lake",
        "name": "Zugibe Vineyards",
        "address": "4277 East Lake Rd.",
        "city": "Geneva",
        "state": "NY",
        "zip_code": "14456",
        "phone_number": "315-585-6402",
        "url": "http://www.zugibevineyards.com",
        "coordinates": [42.8159758,-76.9312001]
    },
    {
        "type": "winery",
        "region": "Finger Lakes",
        "sub_region": "Skaneateles Lake",
        "name": "Anyela's Vineyards",
        "address": "2433 West Lake Rd. &#40;Route 41A&#41;",
        "city": "Skaneateles",
        "state": "NY",
        "zip_code": "13152",
        "phone_number": "315-685-3797",
        "url": "http://www.anyelasvineyards.com",
        "coordinates": [42.8884048,-76.4184189]
    },
    {
        "type": "winery",
        "region": "Finger Lakes",
        "sub_region": "Skaneateles Lake",
        "name": "White Birch Vineyards",
        "address": "18 W. Genesee St., #200",
        "city": "Skaneateles",
        "state": "NY",
        "zip_code": "13152",
        "phone_number": "315-685-9463",
        "url": null,
        "coordinates": [42.9457703,-76.4304581]
    },
    {
        "type": "winery",
        "region": "Hudson River Valley/Catskills",
        "sub_region": "HR East",
        "name": "Cascade Mountain Winery",
        "address": "835 Cascade Mountain Road",
        "city": "Amenia",
        "state": "NY",
        "zip_code": "12501",
        "phone_number": "&#40;845&#41; 373-9021",
        "url": "http://www.cascademt.com",
        "coordinates": [41.8820877,-73.5662155]
    },
    {
        "type": "winery",
        "region": "Hudson River Valley/Catskills",
        "sub_region": "HR East",
        "name": "Brookview Station Winery",
        "address": "1297 Brookview Station Road",
        "city": "Castleton",
        "state": "NY",
        "zip_code": "12033",
        "phone_number": "518-732-7317",
        "url": "http://www.brookviewstationwinery.com",
        "coordinates": [42.537807,-73.711456]
    },
    {
        "type": "winery",
        "region": "Hudson River Valley/Catskills",
        "sub_region": "HR East",
        "name": "Clermont Vineyards & Winery",
        "address": "241 County Route 6",
        "city": "Clermont",
        "state": "NY",
        "zip_code": "12526",
        "phone_number": "845-663-6611",
        "url": "http://www.clermontvineyards.com",
        "coordinates": [42.0798308,-73.8916276]
    },
    {
        "type": "winery",
        "region": "Hudson River Valley/Catskills",
        "sub_region": "HR East",
        "name": "Clinton Vineyards, Inc.",
        "address": "450 Schultzville Road",
        "city": "Clinton Corners",
        "state": "NY",
        "zip_code": "12514",
        "phone_number": "&#40;845&#41; 266-5372",
        "url": "http://www.clintonvineyards.com",
        "coordinates": [41.8482208,-73.7827606]
    },
    {
        "type": "winery",
        "region": "Hudson River Valley/Catskills",
        "sub_region": "HR East",
        "name": "Tousey Winery",
        "address": "1774 Route 9",
        "city": "Germantown",
        "state": "NY",
        "zip_code": "12526",
        "phone_number": "518-567-5462",
        "url": "http://www.touseywinery.com",
        "coordinates": [42.0856237,-73.8260892]
    },
    {
        "type": "winery",
        "region": "Hudson River Valley/Catskills",
        "sub_region": "HR East",
        "name": "Hudson-Chatham Winery",
        "address": "1900 State Route 66",
        "city": "Ghent",
        "state": "NY",
        "zip_code": "12075",
        "phone_number": "518-392-9463",
        "url": "http://www.hudson-chathamwinery.com",
        "coordinates": [42.3102171,-73.6421554]
    },
    {
        "type": "winery",
        "region": "Hudson River Valley/Catskills",
        "sub_region": "HR East",
        "name": "Millbrook Vineyards & Winery",
        "address": "26 Wing Rd",
        "city": "Millbrook",
        "state": "NY",
        "zip_code": "12545",
        "phone_number": "&#40;845&#41; 677-8383",
        "url": "http://www.millbrookwine.com",
        "coordinates": [41.8350584,-73.6858325]
    },
    {
        "type": "winery",
        "region": "Hudson River Valley/Catskills",
        "sub_region": "HR East",
        "name": "The Winery at St. George",
        "address": "1715 East Main St.",
        "city": "Mohegan Lake",
        "state": "NY",
        "zip_code": "10547",
        "phone_number": "914-455-4272",
        "url": "http://www.wineryatstgeorge.com",
        "coordinates": [41.324707,-73.8505249]
    },
    {
        "type": "winery",
        "region": "Hudson River Valley/Catskills",
        "sub_region": "HR East",
        "name": "Brothers Covino",
        "address": "130 Hardscrabble Rd.",
        "city": "North Salem",
        "state": "NY",
        "zip_code": "10560",
        "phone_number": null,
        "url": "",
        "coordinates": [41.3486163,-73.6356048]
    },
    {
        "type": "winery",
        "region": "Hudson River Valley/Catskills",
        "sub_region": "HR East",
        "name": "Prospero Winery",
        "address": "134 Marble Ave",
        "city": "Pleasantville",
        "state": "NY",
        "zip_code": "10570",
        "phone_number": "&#40;914&#41; 769-6870",
        "url": "http://www.prosperowinery.com",
        "coordinates": [41.1284752,-73.7890396]
    },
    {
        "type": "winery",
        "region": "Hudson River Valley/Catskills",
        "sub_region": "HR East",
        "name": "Hetta Glgg LLC",
        "address": "2 Charles St., Suite 1",
        "city": "Rhinecliff",
        "state": "NY",
        "zip_code": "12574",
        "phone_number": "845-216-4801",
        "url": "http://www.hetteglogg.com",
        "coordinates": [41.919788,-73.951164]
    },
    {
        "type": "winery",
        "region": "Hudson River Valley/Catskills",
        "sub_region": "HR East",
        "name": "Breezy Hill Orchard & Cider Mill",
        "address": "828 Centre Road",
        "city": "Staatsburg",
        "state": "NY",
        "zip_code": "12580",
        "phone_number": "&#40;845&#41; 266-3979",
        "url": "http://www.hudsonvalleycider.com",
        "coordinates": [41.8581543,-73.8082886]
    },
    {
        "type": "winery",
        "region": "Hudson River Valley/Catskills",
        "sub_region": "HR West",
        "name": "Altamont Vineyard & Winery",
        "address": "3001 Furbeck Rd.",
        "city": "Altamont",
        "state": "NY",
        "zip_code": "12009",
        "phone_number": "518-355-8100",
        "url": "http://www.altamontwinery.com",
        "coordinates": [42.7412987,-74.0790863]
    },
    {
        "type": "winery",
        "region": "Hudson River Valley/Catskills",
        "sub_region": "HR West",
        "name": "Windham Vineyards and Winery",
        "address": "11 Mountain View Estates",
        "city": "Ashland",
        "state": "NY",
        "zip_code": "12407",
        "phone_number": "518-734-5214",
        "url": "",
        "coordinates": [42.3356887,-74.305758]
    },
    {
        "type": "winery",
        "region": "Hudson River Valley/Catskills",
        "sub_region": "HR West",
        "name": "Woodstock Winery",
        "address": "403 Wittenberg Rd.",
        "city": "Bearsville",
        "state": "NY",
        "zip_code": "12409",
        "phone_number": "845-679-2653",
        "url": "http://www.woodstocknywinery.com",
        "coordinates": [42.0249825,-74.1938171]
    },
    {
        "type": "winery",
        "region": "Hudson River Valley/Catskills",
        "sub_region": "HR West",
        "name": "Cereghino Smith",
        "address": "2583 Route 32",
        "city": "Bloomington",
        "state": "NY",
        "zip_code": "12411",
        "phone_number": "&#40;845&#41; 334-8282",
        "url": "http://www.cereghinosmith.com",
        "coordinates": [41.881683,-74.047706]
    },
    {
        "type": "winery",
        "region": "Hudson River Valley/Catskills",
        "sub_region": "HR West",
        "name": "Enlightenment Wines",
        "address": null,
        "city": "Clintondale",
        "state": "NY",
        "zip_code": "12515",
        "phone_number": null,
        "url": "http://www.enlightenmentwines.com",
        "coordinates": [41.6941986,-74.0527802]
    },
    {
        "type": "winery",
        "region": "Hudson River Valley/Catskills",
        "sub_region": "HR West",
        "name": "Helderberg Meadworks LLC",
        "address": "990 W. Duane Lake Rd.",
        "city": "Duanesburg",
        "state": "NY",
        "zip_code": "12056",
        "phone_number": "518-795-8964",
        "url": "http://www.helderbergmeadworks.com",
        "coordinates": [42.7455864,-74.1148529]
    },
    {
        "type": "winery",
        "region": "Hudson River Valley/Catskills",
        "sub_region": "HR West",
        "name": "Tuthilltown Spirits",
        "address": "14 Gristmill Lane",
        "city": "Gardiner",
        "state": "NY",
        "zip_code": "12525",
        "phone_number": "845-633-8734",
        "url": "http://www.tuthilltown.com",
        "coordinates": [41.687838,-74.174948]
    },
    {
        "type": "winery",
        "region": "Hudson River Valley/Catskills",
        "sub_region": "HR West",
        "name": "Whitecliff Vineyard and Winery",
        "address": "331 McKinstry Road",
        "city": "Gardiner",
        "state": "NY",
        "zip_code": "12525",
        "phone_number": "&#40;845&#41; 255-4613",
        "url": "http://www.whitecliffwine.com",
        "coordinates": [41.6861153,-74.1983948]
    },
    {
        "type": "winery",
        "region": "Hudson River Valley/Catskills",
        "sub_region": "HR West",
        "name": "Palaia Vineyards Inc.",
        "address": "20 Sweet Clover Road",
        "city": "Highland Mills",
        "state": "NY",
        "zip_code": "10930",
        "phone_number": "&#40;845&#41; 928-5384",
        "url": "http://www.palaiavineyards.com",
        "coordinates": [41.3792076,-74.1013718]
    },
    {
        "type": "winery",
        "region": "Hudson River Valley/Catskills",
        "sub_region": "HR West",
        "name": "Torne Valley Vineyards LLC",
        "address": "1 Torne Brook Rd.",
        "city": "Hillburn",
        "state": "NY",
        "zip_code": "10931",
        "phone_number": "845-712-5505",
        "url": "http://www.tornevalleyvineyards.com",
        "coordinates": [41.1405882,-74.168276]
    },
    {
        "type": "winery",
        "region": "Hudson River Valley/Catskills",
        "sub_region": "HR West",
        "name": "Benmarl Winery at Slate Hill Vineyards",
        "address": "156 Highland Ave.",
        "city": "Marlboro",
        "state": "NY",
        "zip_code": "12542",
        "phone_number": "&#40;845&#41; 236-4265",
        "url": "http://www.benmarl.com",
        "coordinates": [41.5948982,-73.9806671]
    },
    {
        "type": "winery",
        "region": "Hudson River Valley/Catskills",
        "sub_region": "HR West",
        "name": "Brunel & Rafael Winery",
        "address": "180 South St.",
        "city": "Marlboro",
        "state": "NY",
        "zip_code": "12542",
        "phone_number": "845-306-5650",
        "url": "http://www.brunelandrafael.com",
        "coordinates": [41.5993919,-74.0022125]
    },
    {
        "type": "winery",
        "region": "Hudson River Valley/Catskills",
        "sub_region": "HR West",
        "name": "Glorie Farm Winery",
        "address": "40 Mountain Road",
        "city": "Marlboro",
        "state": "NY",
        "zip_code": "12542",
        "phone_number": "&#40;845&#41; 236-3265",
        "url": "http://www.gloriewine.com",
        "coordinates": [41.6194305,-74.0128708]
    },
    {
        "type": "winery",
        "region": "Hudson River Valley/Catskills",
        "sub_region": "HR West",
        "name": "Royal Kedem Winery",
        "address": "1519 Route 9W",
        "city": "Marlboro",
        "state": "NY",
        "zip_code": "12542-",
        "phone_number": "845-236-3651",
        "url": "http://www.kedemwinery.com",
        "coordinates": [41.6248589,-73.9687424]
    },
    {
        "type": "winery",
        "region": "Hudson River Valley/Catskills",
        "sub_region": "HR West",
        "name": "Stoutridge Vineyard",
        "address": "10 Ann Kaley Lane",
        "city": "Marlboro",
        "state": "NY",
        "zip_code": "12542",
        "phone_number": "&#40;845&#41; 236-7620",
        "url": "http://www.stoutridge.com",
        "coordinates": [41.6133262,-73.9779445]
    },
    {
        "type": "winery",
        "region": "Hudson River Valley/Catskills",
        "sub_region": "HR West",
        "name": "Weed Orchards & Winery",
        "address": "43 Mt. Zion Rd.",
        "city": "Marlboro",
        "state": "NY",
        "zip_code": "12542",
        "phone_number": "845-236-7848",
        "url": "http://www.weedorchards.com",
        "coordinates": [41.6226387,-74.0014267]
    },
    {
        "type": "winery",
        "region": "Hudson River Valley/Catskills",
        "sub_region": "HR West",
        "name": "Nostrano Vineyards",
        "address": "14 Gala Lane",
        "city": "Milton",
        "state": "NY",
        "zip_code": "12547",
        "phone_number": "845-555-8453",
        "url": "http://www.nostranovineyards.com",
        "coordinates": [41.6503454,-74.0041202]
    },
    {
        "type": "winery",
        "region": "Hudson River Valley/Catskills",
        "sub_region": "HR West",
        "name": "Orchard Hill Cider Mill",
        "address": "29 Soons Cir.",
        "city": "New Hampton",
        "state": "NY",
        "zip_code": "10958",
        "phone_number": "845-374-5471",
        "url": "http://www.soonsorchards.com",
        "coordinates": [41.4028298,-74.4032302]
    },
    {
        "type": "winery",
        "region": "Hudson River Valley/Catskills",
        "sub_region": "HR West",
        "name": "Adair Vineyards",
        "address": "52 Allhusen Road",
        "city": "New Paltz",
        "state": "NY",
        "zip_code": "12561",
        "phone_number": "&#40;845&#41; 255-1377",
        "url": "http://www.adairwine.com",
        "coordinates": [41.6781082,-74.0945358]
    },
    {
        "type": "winery",
        "region": "Hudson River Valley/Catskills",
        "sub_region": "HR West",
        "name": "Kettleborough Cider House LLC",
        "address": "277 State Route 208",
        "city": "New Paltz",
        "state": "NY",
        "zip_code": "12561",
        "phone_number": "845-419-3774",
        "url": "http://www.kettleboroughciderhouse.com",
        "coordinates": [41.7145159,-74.1111054]
    },
    {
        "type": "winery",
        "region": "Hudson River Valley/Catskills",
        "sub_region": "HR West",
        "name": "Robibero Family Vineyards",
        "address": "714 Albany Post Rd.",
        "city": "New Paltz",
        "state": "NY",
        "zip_code": "12561",
        "phone_number": "845-255-9463",
        "url": "http://www.Rnewyorkwine.com",
        "coordinates": [41.7135745,-74.1603072]
    },
    {
        "type": "winery",
        "region": "Hudson River Valley/Catskills",
        "sub_region": "HR West",
        "name": "Yankee Folly Cidery",
        "address": "69 Yankee Folly Rd.",
        "city": "New Paltz",
        "state": "NY",
        "zip_code": "12561",
        "phone_number": null,
        "url": "http://www.yankeefollycidery.com",
        "coordinates": [41.7353516,-74.1554413]
    },
    {
        "type": "winery",
        "region": "Hudson River Valley/Catskills",
        "sub_region": "HR West",
        "name": "Capoccia Vineyards & Winery",
        "address": "2820 Balltown Rd.",
        "city": "Niskayuna",
        "state": "NY",
        "zip_code": "12309",
        "phone_number": "518-729-6386",
        "url": "http://www.capocciawines.com",
        "coordinates": [42.8455048,-73.8899384]
    },
    {
        "type": "winery",
        "region": "Hudson River Valley/Catskills",
        "sub_region": "HR West",
        "name": "Baldwin Vineyards",
        "address": "176 Hardenburgh Road",
        "city": "Pine Bush",
        "state": "NY",
        "zip_code": "12566",
        "phone_number": "&#40;845&#41; 744-2226",
        "url": "http://www.baldwinvineyards.com",
        "coordinates": [41.6229118,-74.2944063]
    },
    {
        "type": "winery",
        "region": "Hudson River Valley/Catskills",
        "sub_region": "HR West",
        "name": "Brimstone Hill Vineyard",
        "address": "61 Brimstone Hill Road",
        "city": "Pine Bush",
        "state": "NY",
        "zip_code": "12566",
        "phone_number": "&#40;845&#41; 744-2231",
        "url": "http://www.brimstonehillwinery.com",
        "coordinates": [41.626545,-74.3167419]
    },
    {
        "type": "winery",
        "region": "Hudson River Valley/Catskills",
        "sub_region": "HR West",
        "name": "Christopher Jacobs Winery at Pennings Vineyards",
        "address": "320 Crawford St.",
        "city": "Pine Bush",
        "state": "NY",
        "zip_code": "12566",
        "phone_number": "845-728-8066",
        "url": "http://www.christopherjacobswinery.com",
        "coordinates": [41.5860998,-74.3620623]
    },
    {
        "type": "winery",
        "region": "Hudson River Valley/Catskills",
        "sub_region": "HR West",
        "name": "Pazdar Winery",
        "address": "6 Laddie Road",
        "city": "Scotchtown",
        "state": "NY",
        "zip_code": "10941",
        "phone_number": "&#40;845&#41; 695-1903",
        "url": "http://www.pazdarwinery.com",
        "coordinates": [41.467926,-74.3622284]
    },
    {
        "type": "winery",
        "region": "Hudson River Valley/Catskills",
        "sub_region": "HR West",
        "name": "El Paso Winery",
        "address": "742 Broadway, Route 9W",
        "city": "Ulster Park",
        "state": "NY",
        "zip_code": "12487",
        "phone_number": "&#40;845&#41; 331-8642",
        "url": "http://www.elpasowinery.com",
        "coordinates": [41.856671,-73.9700373]
    },
    {
        "type": "winery",
        "region": "Hudson River Valley/Catskills",
        "sub_region": "HR West",
        "name": "Magnanini Farm Winery, Inc.",
        "address": "172 Strawridge Road",
        "city": "Wallkill",
        "state": "NY",
        "zip_code": "12589",
        "phone_number": "&#40;845&#41; 895-2767",
        "url": "http://www.magwine.com",
        "coordinates": [41.5956764,-74.1538086]
    },
    {
        "type": "winery",
        "region": "Hudson River Valley/Catskills",
        "sub_region": "HR West",
        "name": "Applewood Winery",
        "address": "82 Four Corners Road",
        "city": "Warwick",
        "state": "NY",
        "zip_code": "10990",
        "phone_number": "&#40;845&#41; 988-9292",
        "url": "http://www.applewoodwinery.com",
        "coordinates": [41.2953568,-74.3071442]
    },
    {
        "type": "winery",
        "region": "Hudson River Valley/Catskills",
        "sub_region": "HR West",
        "name": "Clearview Vineyard",
        "address": "35 Clearview Lane",
        "city": "Warwick",
        "state": "NY",
        "zip_code": "10990",
        "phone_number": "845-651-2838",
        "url": "http://www.clearviewvineyard.com",
        "coordinates": [41.3013458,-74.3483582]
    },
    {
        "type": "winery",
        "region": "Hudson River Valley/Catskills",
        "sub_region": "HR West",
        "name": "Demarest Hill Winery",
        "address": "81 Pine Island Turnpike",
        "city": "Warwick",
        "state": "NY",
        "zip_code": "10990",
        "phone_number": "&#40;845&#41; 986-4723",
        "url": "http://www.demaresthillwinery.com",
        "coordinates": [41.2636185,-74.3740692]
    },
    {
        "type": "winery",
        "region": "Hudson River Valley/Catskills",
        "sub_region": "HR West",
        "name": "Warwick Valley Winery & Distillery",
        "address": "114 Little York Road",
        "city": "Warwick",
        "state": "NY",
        "zip_code": "10990",
        "phone_number": "845-258-4858 tasting",
        "url": "http://www.wvwinery.com",
        "coordinates": [41.2909851,-74.4419174]
    },
    {
        "type": "winery",
        "region": "Hudson River Valley/Catskills",
        "sub_region": "HR West",
        "name": "Brotherhood, America's Oldest Winery",
        "address": "100 Brotherhood Plaza Drive",
        "city": "Washingtonville",
        "state": "NY",
        "zip_code": "10992",
        "phone_number": "&#40;845&#41; 496-3661",
        "url": "http://www.brotherhoodwinery.net",
        "coordinates": [41.4309005,-74.1614391]
    },
    {
        "type": "winery",
        "region": "Hudson River Valley/Catskills",
        "sub_region": "HR West",
        "name": "Shier Winery",
        "address": "439 Floyd Ackert Rd.",
        "city": "West Park",
        "state": "NY",
        "zip_code": "12493",
        "phone_number": "&#40;845&#41; 384-6141",
        "url": "http://www.shierwinery.com",
        "coordinates": [41.8102303,-73.9863434]
    },
    {
        "type": "winery",
        "region": "Hudson River Valley/Catskills",
        "sub_region": "HR West",
        "name": "Aaron Burr Cider",
        "address": "2251 State Route 209",
        "city": "Wurtsboro",
        "state": "NY",
        "zip_code": "12790",
        "phone_number": "845-468-5867",
        "url": "http://www.aaronburrcider.com",
        "coordinates": [41.5340093,-74.537757]
    },
    {
        "type": "winery",
        "region": "Hudson River Valley/Catskills",
        "sub_region": "HR West",
        "name": "BashaKill Vineyards",
        "address": "1131 South Rd.",
        "city": "Wurtsboro",
        "state": "NY",
        "zip_code": "12790",
        "phone_number": "845-888-5858",
        "url": "http://www.bashakillvineyards.com",
        "coordinates": [41.5161686,-74.5364448]
    },
    {
        "type": "winery",
        "region": "Lake Erie",
        "sub_region": null,
        "name": "Chateau Buffalo",
        "address": "1500 Clinton St., 175 Niagara Frontier Food Ter",
        "city": "Buffalo",
        "state": "NY",
        "zip_code": "14206",
        "phone_number": "716-704-4671",
        "url": "http://www.chateaubuffalo.com",
        "coordinates": [42.8725114,-78.8210048]
    },
    {
        "type": "winery",
        "region": "Lake Erie",
        "sub_region": null,
        "name": "Murphy's Wine & Gourmet Shop",
        "address": "18 Main St.",
        "city": "Cattaraugus",
        "state": "NY",
        "zip_code": "14719",
        "phone_number": "716-257-5500",
        "url": "http://www.murphyswinegourmetshop.com",
        "coordinates": [42.3300133,-78.8684692]
    },
    {
        "type": "winery",
        "region": "Lake Erie",
        "sub_region": null,
        "name": "Savage Winery",
        "address": "11300 Savage Rd.",
        "city": "Chaffee",
        "state": "NY",
        "zip_code": "14030",
        "phone_number": "716-868-1245",
        "url": "",
        "coordinates": [42.5715408,-78.5167389]
    },
    {
        "type": "winery",
        "region": "Lake Erie",
        "sub_region": null,
        "name": "Hunt Country Vineyards Outlet at Kutters Cheese",
        "address": "857 Main Road",
        "city": "Corfu",
        "state": "NY",
        "zip_code": "14036",
        "phone_number": "&#40;585&#41; 599-3693",
        "url": "http://www.huntwines.com",
        "coordinates": [42.994397,-78.4238327]
    },
    {
        "type": "winery",
        "region": "Lake Erie",
        "sub_region": null,
        "name": "Winery of Ellicottville",
        "address": "14 Monroe Street",
        "city": "Ellicottville",
        "state": "NY",
        "zip_code": "14731",
        "phone_number": "716-699-1055",
        "url": "http://www.wineryofellicottville.com",
        "coordinates": [42.2761574,-78.6713333]
    },
    {
        "type": "winery",
        "region": "Lake Erie",
        "sub_region": null,
        "name": "Merritt Estate Winery",
        "address": "2264 King Road",
        "city": "Forestville",
        "state": "NY",
        "zip_code": "14062",
        "phone_number": "&#40;888&#41; 965-4800",
        "url": "http://www.merrittestatewinery.com",
        "coordinates": [42.4852028,-79.2090073]
    },
    {
        "type": "winery",
        "region": "Lake Erie",
        "sub_region": null,
        "name": "Woodbury Vineyards",
        "address": "3215 South Roberts Rd",
        "city": "Fredonia",
        "state": "NY",
        "zip_code": "14063",
        "phone_number": "&#40;716&#41; 679-9463",
        "url": "http://www.woodburyvineyards.com",
        "coordinates": [42.455332,-79.2671406]
    },
    {
        "type": "winery",
        "region": "Lake Erie",
        "sub_region": null,
        "name": "Ten Thousand Vines",
        "address": "8 S. Buffalo St.",
        "city": "Hamburg",
        "state": "NY",
        "zip_code": "14075",
        "phone_number": "716-646-9979",
        "url": "http://www.tenthousandvines.com",
        "coordinates": [42.7154999,-78.8288956]
    },
    {
        "type": "winery",
        "region": "Lake Erie",
        "sub_region": null,
        "name": "Mazza Chautauqua Cellars",
        "address": "4717 Chautauqua Stedman Rd.",
        "city": "Mayville",
        "state": "NY",
        "zip_code": "14757",
        "phone_number": null,
        "url": "",
        "coordinates": [42.2067435,-79.4762591]
    },
    {
        "type": "winery",
        "region": "Lake Erie",
        "sub_region": null,
        "name": "21 Brix Winery",
        "address": "6654 West Main Rd.",
        "city": "Portland",
        "state": "NY",
        "zip_code": "14769",
        "phone_number": "716-792-BRIX",
        "url": "http://www.21brix.com",
        "coordinates": [42.3724518,-79.4904709]
    },
    {
        "type": "winery",
        "region": "Lake Erie",
        "sub_region": null,
        "name": "Blueberry Sky Farm Winery",
        "address": "10243 N E Sherman Road",
        "city": "Ripley",
        "state": "NY",
        "zip_code": "14775-",
        "phone_number": "&#40;716&#41; 252-6535",
        "url": "http://www.blueberryskyfarm.com",
        "coordinates": [42.1893463,-79.7239532]
    },
    {
        "type": "winery",
        "region": "Lake Erie",
        "sub_region": null,
        "name": "Quincy Cellars",
        "address": "10606 Route 20",
        "city": "Ripley",
        "state": "NY",
        "zip_code": "14775",
        "phone_number": "716-736-2021",
        "url": "http://www.quincycellars.com",
        "coordinates": [42.2517853,-79.7540131]
    },
    {
        "type": "winery",
        "region": "Lake Erie",
        "sub_region": null,
        "name": "Schloss Doepken Winery",
        "address": "9177 Old Route 20",
        "city": "Ripley",
        "state": "NY",
        "zip_code": "14775",
        "phone_number": "&#40;716&#41; 326-3636",
        "url": "http://www.schlossdoepkenwinery.com",
        "coordinates": [42.2834167,-79.6536484]
    },
    {
        "type": "winery",
        "region": "Lake Erie",
        "sub_region": null,
        "name": "Sensory Winery & Art Gallery",
        "address": "10593 W. Main Rd &#40;Rte. 20&#41;",
        "city": "Ripley",
        "state": "NY",
        "zip_code": "14775",
        "phone_number": "716-736-2444",
        "url": "http://www.sensorywine.com",
        "coordinates": [42.2493155,-79.7486629]
    },
    {
        "type": "winery",
        "region": "Lake Erie",
        "sub_region": null,
        "name": "Sparkling Ponds Winery",
        "address": "10661 West Lake Road",
        "city": "Ripley",
        "state": "NY",
        "zip_code": "14775",
        "phone_number": "&#40;716&#41; 736-4525",
        "url": "http://www.sparklingponds.com",
        "coordinates": [42.2651749,-79.7535095]
    },
    {
        "type": "winery",
        "region": "Lake Erie",
        "sub_region": null,
        "name": "Liberty Vineyards & Winery",
        "address": "2861 Route 20 &#40;Main Road&#41;",
        "city": "Sheridan",
        "state": "NY",
        "zip_code": "14135",
        "phone_number": "716-672-4520",
        "url": "http://www.libertywinery.com",
        "coordinates": [42.4832806,-79.2468993]
    },
    {
        "type": "winery",
        "region": "Lake Erie",
        "sub_region": null,
        "name": "Willow Creek Winery",
        "address": "2627 Chapin Road",
        "city": "Silver Creek",
        "state": "NY",
        "zip_code": "14136",
        "phone_number": "&#40;716&#41; 934-9463",
        "url": "http://www.willowcreekwines.com",
        "coordinates": [42.5119133,-79.2322159]
    },
    {
        "type": "winery",
        "region": "Lake Erie",
        "sub_region": null,
        "name": "Johnson Estate Winery",
        "address": "8419 West Main Road",
        "city": "Westfield",
        "state": "NY",
        "zip_code": "14787",
        "phone_number": "&#40;716&#41; 326-2191",
        "url": "http://www.johnsonwinery.com",
        "coordinates": [42.3062172,-79.6051865]
    },
    {
        "type": "winery",
        "region": "Lake Erie",
        "sub_region": null,
        "name": "Mazza Chautauqua Cellars",
        "address": "8398 West Route 20",
        "city": "Westfield",
        "state": "NY",
        "zip_code": "14787",
        "phone_number": null,
        "url": "",
        "coordinates": [42.3115921,-79.6052399]
    },
    {
        "type": "winery",
        "region": "Lake Erie",
        "sub_region": null,
        "name": "Noble Winery",
        "address": "8630 Hardscrabble Road",
        "city": "Westfield",
        "state": "NY",
        "zip_code": "14787",
        "phone_number": "&#40;716&#41; 326-9463",
        "url": "http://www.noblewinery.com",
        "coordinates": [42.2917581,-79.6216643]
    },
    {
        "type": "winery",
        "region": "Lake Erie",
        "sub_region": null,
        "name": "The Wine Group/Mogen David",
        "address": "85 Bourne Street",
        "city": "Westfield",
        "state": "NY",
        "zip_code": "14787-",
        "phone_number": "&#40;716&#41; 326-3151",
        "url": "",
        "coordinates": [42.3321643,-79.5792921]
    },
    {
        "type": "winery",
        "region": "Lake Erie",
        "sub_region": null,
        "name": "Vetter Vineyards Winery",
        "address": "8005 Prospect Station Road",
        "city": "Westfield",
        "state": "NY",
        "zip_code": "14787",
        "phone_number": "&#40;716&#41; 326-3100",
        "url": "http://www.vettervineyards.com",
        "coordinates": [42.3485527,-79.514473]
    },
    {
        "type": "winery",
        "region": "Lake Ontario",
        "sub_region": null,
        "name": "Five Sons Winery",
        "address": "1356 West Sweden Rd.",
        "city": "Brockport",
        "state": "NY",
        "zip_code": "14420",
        "phone_number": "585-754-7684",
        "url": "http://www.fivesonsvineyard.com",
        "coordinates": [43.1515274,-77.9815216]
    },
    {
        "type": "winery",
        "region": "Lake Ontario",
        "sub_region": null,
        "name": "Mayers Lake Ontario Winery",
        "address": "1593 Hamlin Parma Townline Rd",
        "city": "Hilton",
        "state": "NY",
        "zip_code": "14468",
        "phone_number": "&#40;585&#41; 392-5296",
        "url": "http://www.lakeontariowinery.com",
        "coordinates": [43.2898827,-77.8384094]
    },
    {
        "type": "winery",
        "region": "Lake Ontario",
        "sub_region": null,
        "name": "JD Wine Cellars",
        "address": "1339 Eddy Road",
        "city": "Macedon",
        "state": "NY",
        "zip_code": "14502",
        "phone_number": "315-986-4202",
        "url": "http://www.JDWineCellars.com",
        "coordinates": [43.1163067,-77.3132171]
    },
    {
        "type": "winery",
        "region": "Lake Ontario",
        "sub_region": null,
        "name": "Ashley Lynn Winery",
        "address": "114 Potter Rd.",
        "city": "Mexico",
        "state": "NY",
        "zip_code": "13114",
        "phone_number": null,
        "url": "http://www.ashleywines.com",
        "coordinates": [43.4950714,-76.2618103]
    },
    {
        "type": "winery",
        "region": "Lake Ontario",
        "sub_region": null,
        "name": "Ashley Lynn Winery",
        "address": "4142 State Route 104",
        "city": "Mexico",
        "state": "NY",
        "zip_code": "13114",
        "phone_number": "&#40;315&#41; 963-3262",
        "url": "http://www.ashleywines.com",
        "coordinates": [43.479084,-76.3048477]
    },
    {
        "type": "winery",
        "region": "Lake Ontario",
        "sub_region": null,
        "name": "Ashley Lynn Winery at Appledale Orchards",
        "address": "6018 State Route 3",
        "city": "Mexico",
        "state": "NY",
        "zip_code": "13114",
        "phone_number": null,
        "url": "http://www.ashleywines.com",
        "coordinates": [43.481884,-76.2340775]
    },
    {
        "type": "winery",
        "region": "Lake Ontario",
        "sub_region": null,
        "name": "Inspire Moore Winery & Vineyard",
        "address": "10006 Ridge Rd.",
        "city": "North Rose",
        "state": "NY",
        "zip_code": "14516",
        "phone_number": "585-330-6183",
        "url": "http://www.inspiremoorewinery.com",
        "coordinates": [43.2217865,-76.9078674]
    },
    {
        "type": "winery",
        "region": "Lake Ontario",
        "sub_region": null,
        "name": "Ontario Barn Vineyards",
        "address": "513 Whitney Rd.",
        "city": "Ontario",
        "state": "NY",
        "zip_code": "14519",
        "phone_number": "716-202-4469",
        "url": "http://www.ontariobarnvineyards.com",
        "coordinates": [43.203495,-77.3544312]
    },
    {
        "type": "winery",
        "region": "Lake Ontario",
        "sub_region": null,
        "name": "Colloca Estate Winery",
        "address": "14578 West Bay Rd.",
        "city": "Sterling",
        "state": "NY",
        "zip_code": "13156",
        "phone_number": "315-947-2069",
        "url": "http://www.colloca.com",
        "coordinates": [43.3223319,-76.7207439]
    },
    {
        "type": "winery",
        "region": "Lake Ontario",
        "sub_region": null,
        "name": "Mayers Lake Ontario Winery",
        "address": "699 Five Mile Line Road",
        "city": "Webster",
        "state": "NY",
        "zip_code": "14580",
        "phone_number": "&#40;585&#41; 671-1979",
        "url": "http://www.lakeontariowinery.com",
        "coordinates": [43.2276154,-77.4772644]
    },
    {
        "type": "winery",
        "region": "Lake Ontario",
        "sub_region": null,
        "name": "Apple Country Spirits",
        "address": "3274 Eddy Rd.",
        "city": "Williamson",
        "state": "NY",
        "zip_code": "14589",
        "phone_number": "315-589-8733",
        "url": "",
        "coordinates": [43.2020147,-77.2237775]
    },
    {
        "type": "winery",
        "region": "Lake Ontario",
        "sub_region": null,
        "name": "Young Sommer Winery LLC",
        "address": "4287 Jersey Road",
        "city": "Williamson",
        "state": "NY",
        "zip_code": "14589",
        "phone_number": "315-589-8861",
        "url": "http://www.yswinery.com",
        "coordinates": [43.2570839,-77.177536]
    },
    {
        "type": "winery",
        "region": "Lake Ontario",
        "sub_region": null,
        "name": "Thorpe Vineyard",
        "address": "8150 Chimney Heights Blvd.",
        "city": "Wolcott",
        "state": "NY",
        "zip_code": "14590",
        "phone_number": "&#40;315&#41; 594-2502",
        "url": "http://www.thorpevineyard.com",
        "coordinates": [43.2890358,-76.8961182]
    },
    {
        "type": "winery",
        "region": "Long Island",
        "sub_region": "Central",
        "name": "L.A.Winery Corp. / Elias Wines",
        "address": "114 Cain Dr.",
        "city": "Brentwood",
        "state": "NY",
        "zip_code": "11717",
        "phone_number": "631-617-6565",
        "url": "http://www.kostadaras.wix.com/eliaswines",
        "coordinates": [40.8066887,-73.2425968]
    },
    {
        "type": "winery",
        "region": "Long Island",
        "sub_region": "Central",
        "name": "Loughlin Vineyards Inc.",
        "address": "South Main St.",
        "city": "Sayville",
        "state": "NY",
        "zip_code": "11782",
        "phone_number": "&#40;631&#41; 589-0027",
        "url": "http://www.loughlinvineyard.com",
        "coordinates": [40.7362404,-73.0819016]
    },
    {
        "type": "winery",
        "region": "Long Island",
        "sub_region": "Central",
        "name": "Pindar Wine Shop",
        "address": "117 Main St.",
        "city": "Port Jefferson",
        "state": "NY",
        "zip_code": "11777",
        "phone_number": "631-331-7070",
        "url": "http://www.pindar.net",
        "coordinates": [40.9461281,-73.0687695]
    },
    {
        "type": "winery",
        "region": "Long Island",
        "sub_region": "Central",
        "name": "Harmony Vineyards",
        "address": "169 Harbor Road",
        "city": "Head of the Harbor",
        "state": "NY",
        "zip_code": "11780",
        "phone_number": "631-291-9900",
        "url": "http://www.harmonyvineyards.com",
        "coordinates": [40.911596,-73.1537721]
    },
    {
        "type": "winery",
        "region": "Long Island",
        "sub_region": "Central",
        "name": "Whisper Vineyards",
        "address": "485 Edgewood Ave.",
        "city": "St. James",
        "state": "NY",
        "zip_code": "11780",
        "phone_number": "631-257-5222",
        "url": "http://www.borellasfarmstand.com",
        "coordinates": [40.8702665,-73.1795541]
    },
    {
        "type": "winery",
        "region": "Long Island",
        "sub_region": "North Fork",
        "name": "Paumanok Vineyards, Ltd.",
        "address": "1074 Main Road",
        "city": "Aquebogue",
        "state": "NY",
        "zip_code": "11931",
        "phone_number": "&#40;631&#41; 722-8800",
        "url": "http://www.paumanok.com",
        "coordinates": [40.9489975,-72.60392]
    },
    {
        "type": "winery",
        "region": "Long Island",
        "sub_region": "North Fork",
        "name": "Woodside Orchards",
        "address": "729 Main Road",
        "city": "Aquebogue",
        "state": "NY",
        "zip_code": "11931",
        "phone_number": "631-722-5770",
        "url": "http://www.woodsideorchards.com",
        "coordinates": [40.9465904,-72.6179581]
    },
    {
        "type": "winery",
        "region": "Long Island",
        "sub_region": "North Fork",
        "name": "Baiting Hollow Farm Vineyard",
        "address": "2114 Sound Ave.",
        "city": "Baiting Hollow",
        "state": "NY",
        "zip_code": "11933",
        "phone_number": "631-369-0100",
        "url": "http://www.baitinghollowfarmvineyard.com",
        "coordinates": [40.957473,-72.75634]
    },
    {
        "type": "winery",
        "region": "Long Island",
        "sub_region": "North Fork",
        "name": "Bouk Wines / Bouquet Wines",
        "address": null,
        "city": "Brooklyn",
        "state": "NY",
        "zip_code": "11201",
        "phone_number": "877-877-0752",
        "url": "http://www.boukewines.com",
        "coordinates": []
    },
    {
        "type": "winery",
        "region": "Long Island",
        "sub_region": "North Fork",
        "name": "Bedell Cellars",
        "address": "36225 Main Road &#40;Rt. 25&#41;",
        "city": "Cutchogue",
        "state": "NY",
        "zip_code": "11935",
        "phone_number": "&#40;631&#41; 734-7537",
        "url": "http://www.bedellcellars.com",
        "coordinates": [41.029067,-72.468765]
    },
    {
        "type": "winery",
        "region": "Long Island",
        "sub_region": "North Fork",
        "name": "Castello di Borghese Vineyard",
        "address": "17150 Route 48",
        "city": "Cutchogue",
        "state": "NY",
        "zip_code": "11935",
        "phone_number": "&#40;631&#41; 734-5111",
        "url": "http://www.castellodiborghese.com",
        "coordinates": [40.9971809,-72.5318298]
    },
    {
        "type": "winery",
        "region": "Long Island",
        "sub_region": "North Fork",
        "name": "Coffee Pot Cellars",
        "address": "31855 Main Road",
        "city": "Cutchogue",
        "state": "NY",
        "zip_code": "11935",
        "phone_number": "631-765-8929",
        "url": "http://www.coffeepotcellars.com",
        "coordinates": [41.019996,-72.479652]
    },
    {
        "type": "winery",
        "region": "Long Island",
        "sub_region": "North Fork",
        "name": "Lieb Cellars",
        "address": "13050 Oregon Rd.",
        "city": "Cutchogue",
        "state": "NY",
        "zip_code": "11935",
        "phone_number": null,
        "url": "",
        "coordinates": [41.0361557,-72.5042267]
    },
    {
        "type": "winery",
        "region": "Long Island",
        "sub_region": "North Fork",
        "name": "Macari Vineyards - Cutchogue",
        "address": "24385 Main Road",
        "city": "Cutchogue",
        "state": "NY",
        "zip_code": "11935",
        "phone_number": "631-734-7070",
        "url": "http://www.macariwines.com",
        "coordinates": [41.005172,-72.49652]
    },
    {
        "type": "winery",
        "region": "Long Island",
        "sub_region": "North Fork",
        "name": "McCall Vineyards",
        "address": "22600 Main Rd.",
        "city": "Cutchogue",
        "state": "NY",
        "zip_code": "11935",
        "phone_number": "631-735-5764",
        "url": "http://www.mccallwines.com",
        "coordinates": [41.000064,-72.500885]
    },
    {
        "type": "winery",
        "region": "Long Island",
        "sub_region": "North Fork",
        "name": "Pellegrini Vineyards, LLC",
        "address": "23005 Main Road",
        "city": "Cutchogue",
        "state": "NY",
        "zip_code": "11935",
        "phone_number": "&#40;631&#41; 734-4111",
        "url": "http://www.pellegrinivineyards.com",
        "coordinates": [41.0042152,-72.5039368]
    },
    {
        "type": "winery",
        "region": "Long Island",
        "sub_region": "North Fork",
        "name": "Pugliese Vineyards",
        "address": "34515 Main Road, Route 25",
        "city": "Cutchogue",
        "state": "NY",
        "zip_code": "11935",
        "phone_number": "&#40;631&#41; 734-4057",
        "url": "http://www.pugliesevineyards.com",
        "coordinates": [41.0299416,-72.480629]
    },
    {
        "type": "winery",
        "region": "Long Island",
        "sub_region": "North Fork",
        "name": "Reilly Cellars LLC",
        "address": "37025 Main Road",
        "city": "Cutchogue",
        "state": "NY",
        "zip_code": "11935",
        "phone_number": "516-446-2902",
        "url": "",
        "coordinates": [41.032924,-72.472297]
    },
    {
        "type": "winery",
        "region": "Long Island",
        "sub_region": "North Fork",
        "name": "Vineyard 48",
        "address": "18910 Route 48",
        "city": "Cutchogue",
        "state": "NY",
        "zip_code": "11935",
        "phone_number": "&#40;631&#41; 734-5200",
        "url": "http://www.vineyard48winery.com",
        "coordinates": [40.9971809,-72.5318298]
    },
    {
        "type": "winery",
        "region": "Long Island",
        "sub_region": "North Fork",
        "name": "Waters Crest Winery Corp.",
        "address": "Cox Lane & Route 48",
        "city": "Cutchogue",
        "state": "NY",
        "zip_code": "11935",
        "phone_number": "&#40;631&#41; 734-5065",
        "url": "http://www.waterscrestwinery.com",
        "coordinates": [41.0312098,-72.4949699]
    },
    {
        "type": "winery",
        "region": "Long Island",
        "sub_region": "North Fork",
        "name": "Lieb Cellars",
        "address": "26 Park Place",
        "city": "East Hampton",
        "state": "NY",
        "zip_code": "11937",
        "phone_number": "631-527-5100",
        "url": "http://www.liebcellars.com",
        "coordinates": [40.9624901,-72.1872253]
    },
    {
        "type": "winery",
        "region": "Long Island",
        "sub_region": "North Fork",
        "name": "Suhru Wines",
        "address": " ",
        "city": "East Moriches",
        "state": "NY",
        "zip_code": "11940",
        "phone_number": "631-603-8127",
        "url": "http://www.suhruwines.com",
        "coordinates": [40.8079681,-72.7581635]
    },
    {
        "type": "winery",
        "region": "Long Island",
        "sub_region": "North Fork",
        "name": "Deseo d Michael Vineyard",
        "address": null,
        "city": "Farmingdale",
        "state": "NY",
        "zip_code": "11735",
        "phone_number": "718-606-0172",
        "url": "http://www.orwineestate.com",
        "coordinates":[40.7318611,-73.4457321]
    },
    {
        "type": "winery",
        "region": "Long Island",
        "sub_region": "North Fork",
        "name": "Kontokosta Winery",
        "address": "825 North Road",
        "city": "Greenport",
        "state": "NY",
        "zip_code": "11944",
        "phone_number": "631-477-6977",
        "url": "http://www.kontokostawinery.com",
        "coordinates": [41.1127014,-72.3717194]
    },
    {
        "type": "winery",
        "region": "Long Island",
        "sub_region": "North Fork",
        "name": "Clovis Point",
        "address": "1935 Main Road",
        "city": "Jamesport",
        "state": "NY",
        "zip_code": "11947",
        "phone_number": "&#40;631&#41; 722-4222",
        "url": "http://www.clovispointwines.com",
        "coordinates": [40.9499283,-72.5805511]
    },
    {
        "type": "winery",
        "region": "Long Island",
        "sub_region": "North Fork",
        "name": "Diliberto Winery",
        "address": "250 Manor Lane",
        "city": "Jamesport",
        "state": "NY",
        "zip_code": "11947",
        "phone_number": "&#40;631&#41; 722-3416",
        "url": "http://www.dilibertowinery.com",
        "coordinates": [40.9575233,-72.585434]
    },
    {
        "type": "winery",
        "region": "Long Island",
        "sub_region": "North Fork",
        "name": "Harbes Family Farm & Vineyard - Jamesport",
        "address": "1223 Main Rd.",
        "city": "Jamesport",
        "state": "NY",
        "zip_code": "11947",
        "phone_number": "631-722-2022",
        "url": "http://www.harbesfamilyfarm.com",
        "coordinates": [40.946784,-72.596931]
    },
    {
        "type": "winery",
        "region": "Long Island",
        "sub_region": "North Fork",
        "name": "Jamesport Vineyards",
        "address": "1216 Main Road",
        "city": "Jamesport",
        "state": "NY",
        "zip_code": "11947",
        "phone_number": "&#40;631&#41; 722-5256",
        "url": "http://www.jamesportwines.com",
        "coordinates": [40.9499283,-72.5805511]
    },
    {
        "type": "winery",
        "region": "Long Island",
        "sub_region": "North Fork",
        "name": "Jason's Vineyards",
        "address": "1785 Main Road",
        "city": "Jamesport",
        "state": "NY",
        "zip_code": "11947",
        "phone_number": "631-238-5801",
        "url": "http://www.jasonsvineyard.com",
        "coordinates": [40.9524002,-72.5740738]
    },
    {
        "type": "winery",
        "region": "Long Island",
        "sub_region": "North Fork",
        "name": "Sherwood House Vineyards",
        "address": "1291 Main Road",
        "city": "Jamesport",
        "state": "NY",
        "zip_code": "11947",
        "phone_number": "631-779-2817",
        "url": "http://www.sherwoodhousevineyards.com",
        "coordinates": [40.947063,-72.593666]
    },
    {
        "type": "winery",
        "region": "Long Island",
        "sub_region": "North Fork",
        "name": "Woodside Orchards",
        "address": "116 Manor Lane",
        "city": "Jamesport",
        "state": "NY",
        "zip_code": "11947",
        "phone_number": "631-722-5770",
        "url": "http://www.woodsideorchards.com",
        "coordinates": [40.9536057,-72.5818024]
    },
    {
        "type": "winery",
        "region": "Long Island",
        "sub_region": "North Fork",
        "name": "Laurel Lake Vineyards",
        "address": "3165 Main Road",
        "city": "Laurel",
        "state": "NY",
        "zip_code": "11948",
        "phone_number": "&#40;631&#41; 298-1420",
        "url": "http://www.llwines.com",
        "coordinates": [40.9728813,-72.5586929]
    },
    {
        "type": "winery",
        "region": "Long Island",
        "sub_region": "North Fork",
        "name": "Gramercy Vineyards",
        "address": "9650 Sound Avenue",
        "city": "Mattituck",
        "state": "NY",
        "zip_code": "11952",
        "phone_number": "631-298-1213",
        "url": "http://www.gramercyvineyards.com",
        "coordinates": [40.9858093,-72.5442886]
    },
    {
        "type": "winery",
        "region": "Long Island",
        "sub_region": "North Fork",
        "name": "Harbes Family Farm & Vineyard",
        "address": "715 Sound Avenue",
        "city": "Mattituck",
        "state": "NY",
        "zip_code": "11952",
        "phone_number": "631-298-0700",
        "url": "http://www.harbesfamilyfarm.com",
        "coordinates": [40.9892654,-72.5813522]
    },
    {
        "type": "winery",
        "region": "Long Island",
        "sub_region": "North Fork",
        "name": "Influence Wines",
        "address": " ",
        "city": "Mattituck",
        "state": "NY",
        "zip_code": "11952",
        "phone_number": null,
        "url": "http://www.influencewines.com",
        "coordinates": [40.9919701,-72.5324326]
    },
    {
        "type": "winery",
        "region": "Long Island",
        "sub_region": "North Fork",
        "name": "Lieb Cellars",
        "address": "35 Cox Neck Road",
        "city": "Mattituck",
        "state": "NY",
        "zip_code": "11952",
        "phone_number": "&#40;631&#41; 298-1942",
        "url": "http://www.liebcellars.com",
        "coordinates": [40.9884949,-72.554657]
    },
    {
        "type": "winery",
        "region": "Long Island",
        "sub_region": "North Fork",
        "name": "Macari Vineyards",
        "address": "150 Bergen Ave.",
        "city": "Mattituck",
        "state": "NY",
        "zip_code": "11952",
        "phone_number": "&#40;631&#41; 298-0100",
        "url": "http://www.macariwines.com",
        "coordinates": [40.9863874,-72.5697277]
    },
    {
        "type": "winery",
        "region": "Long Island",
        "sub_region": "North Fork",
        "name": "Premium Wine Group",
        "address": null,
        "city": "Mattituck",
        "state": "NY",
        "zip_code": "11952",
        "phone_number": "&#40;631&#41; 298-1900",
        "url": "http://www.premiumwinegroup.com",
        "coordinates": [40.9884949,-72.554657]
    },
    {
        "type": "winery",
        "region": "Long Island",
        "sub_region": "North Fork",
        "name": "Roanoke Vineyards on Love Lane",
        "address": "165 Love Lane",
        "city": "Mattituck",
        "state": "NY",
        "zip_code": "11952",
        "phone_number": "631-298-7677",
        "url": "http://www.roanokevineyards.com",
        "coordinates": [40.9916801,-72.5348816]
    },
    {
        "type": "winery",
        "region": "Long Island",
        "sub_region": "North Fork",
        "name": "Scarola Vineyards",
        "address": "4850 Sound Ave",
        "city": "Mattituck",
        "state": "NY",
        "zip_code": "11952",
        "phone_number": "631-298-7676",
        "url": "http://www.Scarolavineyards.com",
        "coordinates": [40.9851952,-72.56353]
    },
    {
        "type": "winery",
        "region": "Long Island",
        "sub_region": "North Fork",
        "name": "Sherwood House Vineyards",
        "address": "2600 Oregon Road",
        "city": "Mattituck",
        "state": "NY",
        "zip_code": "11952",
        "phone_number": "631-779-2817",
        "url": "http://www.sherwoodhousevineyards.com",
        "coordinates": [41.0146561,-72.5280838]
    },
    {
        "type": "winery",
        "region": "Long Island",
        "sub_region": "North Fork",
        "name": "Shinn Estate Vineyards",
        "address": "2000 Oregon Road",
        "city": "Mattituck",
        "state": "NY",
        "zip_code": "11952",
        "phone_number": "&#40;631&#41; 804-0367",
        "url": "http://www.shinnestatevineyards.com",
        "coordinates": [41.014534,-72.5326538]
    },
    {
        "type": "winery",
        "region": "Long Island",
        "sub_region": "North Fork",
        "name": "T'Jara Wines",
        "address": "35 Cox Neck Rd.",
        "city": "Mattituck",
        "state": "NY",
        "zip_code": "11952",
        "phone_number": "917-497-3073",
        "url": "http://www.tjaravineyards.com",
        "coordinates": [40.9884949,-72.554657]
    },
    {
        "type": "winery",
        "region": "Long Island",
        "sub_region": "North Fork",
        "name": "Ackerly Pond Vineyards",
        "address": "1375 Peconic Lane",
        "city": "Peconic",
        "state": "NY",
        "zip_code": "11958",
        "phone_number": "&#40;631&#41; 765-6861",
        "url": "http://www.ackerlypondvineyards.com",
        "coordinates": [41.0427475,-72.4590759]
    },
    {
        "type": "winery",
        "region": "Long Island",
        "sub_region": "North Fork",
        "name": "Medolla Vineyards",
        "address": null,
        "city": "Peconic",
        "state": "NY",
        "zip_code": "11958",
        "phone_number": "&#40;631&#41; 334-3059",
        "url": "http://www.medollavineyards.com",
        "coordinates": [41.0473518,-72.4621124]
    },
    {
        "type": "winery",
        "region": "Long Island",
        "sub_region": "North Fork",
        "name": "Osprey's Dominion Vineyards",
        "address": "44075 Main Road &#40;Route 25&#41;",
        "city": "Peconic",
        "state": "NY",
        "zip_code": "11958",
        "phone_number": "&#40;631&#41; 765-6188",
        "url": "http://www.ospreysdominion.com",
        "coordinates": [41.045494,-72.45111]
    },
    {
        "type": "winery",
        "region": "Long Island",
        "sub_region": "North Fork",
        "name": "Pindar Vineyards",
        "address": "37645 Main Road, Route 25",
        "city": "Peconic",
        "state": "NY",
        "zip_code": "11958",
        "phone_number": "&#40;631&#41; 734-6200",
        "url": "http://www.pindar.net",
        "coordinates": [41.0347748,-72.4698029]
    },
    {
        "type": "winery",
        "region": "Long Island",
        "sub_region": "North Fork",
        "name": "Raphael Winery",
        "address": "39390 Main Road, Route 25",
        "city": "Peconic",
        "state": "NY",
        "zip_code": "11958",
        "phone_number": "&#40;631&#41; 765-1100",
        "url": "http://www.raphaelwine.com",
        "coordinates": [41.0313683,-72.4587555]
    },
    {
        "type": "winery",
        "region": "Long Island",
        "sub_region": "North Fork",
        "name": "Sannino Bella Vita Vineyard",
        "address": "1375 Peconic Lane",
        "city": "Peconic",
        "state": "NY",
        "zip_code": "11958",
        "phone_number": "631-734-8282",
        "url": "www,sanninovineyard.com",
        "coordinates": [41.0427475,-72.4590759]
    },
    {
        "type": "winery",
        "region": "Long Island",
        "sub_region": "North Fork",
        "name": "The Lenz Winery",
        "address": "38355 Main Road, Route 25",
        "city": "Peconic",
        "state": "NY",
        "zip_code": "11958-",
        "phone_number": "&#40;631&#41; 734-6010",
        "url": "http://www.lenzwine.com",
        "coordinates":[41.0367126,-72.4681396]
    },
    {
        "type": "winery",
        "region": "Long Island",
        "sub_region": "North Fork",
        "name": "The Winemaker Studio by Anthony Nappa Wines",
        "address": "2885 Peconic Road",
        "city": "Peconic",
        "state": "NY",
        "zip_code": "11958",
        "phone_number": "774-641-7488",
        "url": "http://www.winemaker-studio.com",
        "coordinates": [41.046814,-72.4619598]
    },
    {
        "type": "winery",
        "region": "Long Island",
        "sub_region": "North Fork",
        "name": "Harbes Family Farm & Vineyard - Riverhead",
        "address": "5698 Sound Ave.",
        "city": "Riverhead",
        "state": "NY",
        "zip_code": "11901",
        "phone_number": "631-298-0800",
        "url": "http://www.harbesfamilyfarm.com",
        "coordinates": [40.9784594,-72.6047004]
    },
    {
        "type": "winery",
        "region": "Long Island",
        "sub_region": "North Fork",
        "name": "Martha Clara Vineyards",
        "address": "6025 Sound Avenue",
        "city": "Riverhead",
        "state": "NY",
        "zip_code": "11901",
        "phone_number": "&#40;631&#41; 298-0075",
        "url": "http://www.marthaclaravineyards.com",
        "coordinates": [40.9829387,-72.5892743]
    },
    {
        "type": "winery",
        "region": "Long Island",
        "sub_region": "North Fork",
        "name": "Palmer Vineyards",
        "address": "5120 Sound Avenue",
        "city": "Riverhead",
        "state": "NY",
        "zip_code": "11901",
        "phone_number": "&#40;631&#41; 722-9463",
        "url": "http://www.palmervineyards.com",
        "coordinates": [40.9718704,-72.6276398]
    },
    {
        "type": "winery",
        "region": "Long Island",
        "sub_region": "North Fork",
        "name": "Roanoke Vineyards",
        "address": "3543 Sound Avenue",
        "city": "Riverhead",
        "state": "NY",
        "zip_code": "11901",
        "phone_number": "&#40;631&#41; 727-4161",
        "url": "http://www.roanokevineyards.com",
        "coordinates": [40.9681549,-72.6946564]
    },
    {
        "type": "winery",
        "region": "Long Island",
        "sub_region": "North Fork",
        "name": "Croteaux Vineyards",
        "address": "1450 South Harbor Road",
        "city": "Southold",
        "state": "NY",
        "zip_code": "11971",
        "phone_number": "631-765-6099",
        "url": "http://www.croteaux.com",
        "coordinates": [41.0454445,-72.4399643]
    },
    {
        "type": "winery",
        "region": "Long Island",
        "sub_region": "North Fork",
        "name": "Duck Walk North",
        "address": "44535 Main Rd.",
        "city": "Southold",
        "state": "NY",
        "zip_code": "11971",
        "phone_number": "631-765-3500",
        "url": "http://www.duckwalknorth.com",
        "coordinates": [41.0489922,-72.4494858]
    },
    {
        "type": "winery",
        "region": "Long Island",
        "sub_region": "North Fork",
        "name": "Mattebella Vineyards",
        "address": "46005 Route 25",
        "city": "Southold",
        "state": "NY",
        "zip_code": "11971",
        "phone_number": "888-628-8323",
        "url": "http://www.mattebellavineyards.com",
        "coordinates": [41.0490379,-72.4453354]
    },
    {
        "type": "winery",
        "region": "Long Island",
        "sub_region": "North Fork",
        "name": "Onabay Vineyards",
        "address": null,
        "city": "Southold",
        "state": "NY",
        "zip_code": "11971",
        "phone_number": "917-715-0605",
        "url": "http://www.onabayvineyards.com",
        "coordinates":[41.0641098,-72.4284515]
    },
    {
        "type": "winery",
        "region": "Long Island",
        "sub_region": "North Fork",
        "name": "One Woman Wines & Vineyards",
        "address": "19110 Soundview Ave",
        "city": "Southold",
        "state": "NY",
        "zip_code": "11971",
        "phone_number": "631-765-1200",
        "url": "http://www.onewomanwines.com",
        "coordinates": [41.083931,-72.4250488]
    },
    {
        "type": "winery",
        "region": "Long Island",
        "sub_region": "North Fork",
        "name": "Southold Farm + Cellar",
        "address": "860 Old North Rd.",
        "city": "Southold",
        "state": "NY",
        "zip_code": "11971",
        "phone_number": "917-400-0014",
        "url": "http://www.SoutholdFarmAndCellar.com",
        "coordinates": [41.0749321,-72.4363251]
    },
    {
        "type": "winery",
        "region": "Long Island",
        "sub_region": "North Fork",
        "name": "Sparkling Pointe",
        "address": "39750 County Road 48",
        "city": "Southold",
        "state": "NY",
        "zip_code": "11971",
        "phone_number": "631-765-0200",
        "url": "http://www.sparklingpointe.com",
        "coordinates": [41.0608559,-72.4433746]
    },
    {
        "type": "winery",
        "region": "Long Island",
        "sub_region": "North Fork",
        "name": "The Old Field Vineyards",
        "address": "59600 Main Road",
        "city": "Southold",
        "state": "NY",
        "zip_code": "11971",
        "phone_number": "&#40;631&#41; 765-0004",
        "url": "http://www.theoldfield.com",
        "coordinates": [41.0714035,-72.4077988]
    },
    {
        "type": "winery",
        "region": "Long Island",
        "sub_region": "North Fork",
        "name": "Corey Creek Vineyards",
        "address": "45470 Main Road",
        "city": "Southold ",
        "state": "NY",
        "zip_code": "11971",
        "phone_number": "631-765-4168",
        "url": "http://www.coreycreek.com",
        "coordinates": [41.046196,-72.4460907]
    },
    {
        "type": "winery",
        "region": "Long Island",
        "sub_region": "The Hamptons",
        "name": "Channing Daughters Winery",
        "address": "1927 Scuttlehole Road",
        "city": "Bridgehampton",
        "state": "NY",
        "zip_code": "11932",
        "phone_number": "&#40;631&#41; 537-7224",
        "url": "http://www.channingdaughters.com",
        "coordinates": [40.9372711,-72.30159]
    },
    {
        "type": "winery",
        "region": "Long Island",
        "sub_region": "The Hamptons",
        "name": "Duck Walk Vineyards",
        "address": "231 Montauk Highway",
        "city": "Water Mill",
        "state": "NY",
        "zip_code": "11976-",
        "phone_number": "&#40;631&#41; 726-7555",
        "url": "http://www.duckwalk.com",
        "coordinates": [40.9034386,-72.3669586]
    },
    {
        "type": "winery",
        "region": "Long Island",
        "sub_region": "The Hamptons",
        "name": "The Grapes of Roth",
        "address": "139 Sagg Road",
        "city": "Sagaponack",
        "state": "NY",
        "zip_code": "11962",
        "phone_number": "&#40;631&#41; 725-7999",
        "url": "http://www.thegrapesofroth.com",
        "coordinates": [40.9451256,-72.2789662]
    },
    {
        "type": "winery",
        "region": "Long Island",
        "sub_region": "The Hamptons",
        "name": "Wolffer Estate Vineyard",
        "address": "139 Sagg Road",
        "city": "Sagaponack",
        "state": "NY",
        "zip_code": "11962",
        "phone_number": "&#40;631&#41; 537-5106",
        "url": "http://www.wolffer.com",
        "coordinates": [40.9451256,-72.2789662]
    },
    {
        "type": "winery",
        "region": "Long Island",
        "sub_region": "The Hamptons",
        "name": "Wolffer Estate Wine Stand",
        "address": "3312 Montauk Hwy.",
        "city": "Sagaponack",
        "state": "NY",
        "zip_code": "11962",
        "phone_number": "&#40;631&#41; 537-5106",
        "url": "http://www.wolffer.com",
        "coordinates": [40.9424139,-72.273288]
    },
    {
        "type": "winery",
        "region": "New York City",
        "sub_region": null,
        "name": "Loukas Wines",
        "address": "910 Gerard Avenue",
        "city": "Bronx",
        "state": "NY",
        "zip_code": "10452",
        "phone_number": "&#40;718&#41; 992-1024",
        "url": "",
        "coordinates": [40.8285408,-73.9240875]
    },
    {
        "type": "winery",
        "region": "New York City",
        "sub_region": null,
        "name": "Queens County Farm",
        "address": "73-50 Little Neck Parkway",
        "city": "Floral Park",
        "state": "NY",
        "zip_code": "11004",
        "phone_number": "718-347-3276",
        "url": "http://www.queensfarm.org",
        "coordinates": [40.7280998,-73.7106094]
    },
    {
        "type": "winery",
        "region": "New York City",
        "sub_region": null,
        "name": "Atsby Vermouth",
        "address": null,
        "city": "New York",
        "state": "NY",
        "zip_code": "10013",
        "phone_number": "800-975-8148",
        "url": "http://www.atsbyvermouth.com",
        "coordinates": [40.7255173,-74.0087967]
    },
    {
        "type": "winery",
        "region": "New York City",
        "sub_region": null,
        "name": "City Winery",
        "address": "143 Varick Sr.",
        "city": "New York",
        "state": "NY",
        "zip_code": "10013",
        "phone_number": "212-608-0555",
        "url": "http://www.citywinery.com",
        "coordinates": [40.7261887,-74.0060349]
    },
    {
        "type": "winery",
        "region": "New York City",
        "sub_region": null,
        "name": "One Woman Wines & Vineyards",
        "address": "37 Grand Central Terminal",
        "city": "New York",
        "state": "NY",
        "zip_code": "10017",
        "phone_number": "212-663-2212",
        "url": "http://www.onewomanwines.com/tasteny",
        "coordinates": [40.7521313,-73.9775864]
    },
    {
        "type": "winery",
        "region": "New York City",
        "sub_region": "Brooklyn",
        "name": "Joseph Zakon Winery &#40;Crown Regal&#41;",
        "address": "586 Montgomery Street",
        "city": "Brooklyn",
        "state": "NY",
        "zip_code": "11225",
        "phone_number": "718-604-1430",
        "url": "",
        "coordinates": [40.6648254,-73.9452362]
    },
    {
        "type": "winery",
        "region": "New York City",
        "sub_region": "Brooklyn",
        "name": "Ben Ish Winery",
        "address": " ",
        "city": "Brooklyn",
        "state": "NY",
        "zip_code": "11213",
        "phone_number": null,
        "url": "http://www.benishwinery.com",
        "coordinates": [40.6671944,-73.9400711]
    },
    {
        "type": "winery",
        "region": "New York City",
        "sub_region": "Brooklyn",
        "name": "Brooklyn Oenology",
        "address": "209 Wythe Avenue",
        "city": "Brooklyn",
        "state": "NY",
        "zip_code": "11249",
        "phone_number": "718-599-1259",
        "url": "http://www.brooklynoenology.com",
        "coordinates": [40.7175254,-73.9625003]
    },
    {
        "type": "winery",
        "region": "New York City",
        "sub_region": "Brooklyn",
        "name": "Brooklyn Winery",
        "address": "213 North 8th St.",
        "city": "Brooklyn",
        "state": "NY",
        "zip_code": "11211",
        "phone_number": "347-763-1506",
        "url": "http://www.bkwinery.com",
        "coordinates": [40.7173386,-73.9549789]
    },
    {
        "type": "winery",
        "region": "New York City",
        "sub_region": "Brooklyn",
        "name": "Red Hook Winery",
        "address": "177 Dwight St.",
        "city": "Brooklyn",
        "state": "NY",
        "zip_code": "11231",
        "phone_number": "347-689-2432",
        "url": "http://www.redhookwinery.com",
        "coordinates": [40.6736298,-74.0114975]
    },
    {
        "type": "winery",
        "region": "New York City",
        "sub_region": "Brooklyn",
        "name": "Uncouth Vermouth Inc.",
        "address": "250 Van Brunt St.",
        "city": "Brooklyn",
        "state": "NY",
        "zip_code": "11231",
        "phone_number": null,
        "url": "http://www.uncouthvermouth.com",
        "coordinates": [40.6807175,-74.0093231]
    },
    {
        "type": "winery",
        "region": "Niagara Escarpment/Greater Niagara Area",
        "sub_region": "Greater Niagara Area",
        "name": "Salamaca Estate Winery",
        "address": "2660 Hindsburg Road",
        "city": "Albion",
        "state": "NY",
        "zip_code": "14411",
        "phone_number": "585-283-4094",
        "url": "http://www.salamacaestatewinery.com",
        "coordinates": [43.2866058,-78.1085129]
    },
    {
        "type": "winery",
        "region": "Niagara Escarpment/Greater Niagara Area",
        "sub_region": "Greater Niagara Area",
        "name": "The Winery at Marjim Manor",
        "address": "7171 East Lake Road",
        "city": "Appleton",
        "state": "NY",
        "zip_code": "14008",
        "phone_number": "&#40;716&#41; 778-7001",
        "url": "http://www.marjimmanor.com",
        "coordinates": [43.3490448,-78.6392441]
    },
    {
        "type": "winery",
        "region": "Niagara Escarpment/Greater Niagara Area",
        "sub_region": "Greater Niagara Area",
        "name": "BlackBird Cider Works",
        "address": "8503 Lower Lake Rd.",
        "city": "Barker",
        "state": "NY",
        "zip_code": "14012",
        "phone_number": "716-795-3580",
        "url": "http://www.blackbirdciders.com",
        "coordinates": [43.3652344,-78.5580902]
    },
    {
        "type": "winery",
        "region": "Niagara Escarpment/Greater Niagara Area",
        "sub_region": "Greater Niagara Area",
        "name": "Autumn Moon Farm Winery",
        "address": "7585 W. Bergen Rd.",
        "city": "Bergen",
        "state": "NY",
        "zip_code": "14416",
        "phone_number": "585-494-6000",
        "url": "http://www.autumnmoonwinery.com",
        "coordinates": [43.0460968,-77.9991989]
    },
    {
        "type": "winery",
        "region": "Niagara Escarpment/Greater Niagara Area",
        "sub_region": "Greater Niagara Area",
        "name": "Black Willow Winery",
        "address": "5565 West Lake Rd.",
        "city": "Burt",
        "state": "NY",
        "zip_code": "14028",
        "phone_number": "716-439-1982",
        "url": "http://www.blackwillowwinery.com",
        "coordinates": [43.3341103,-78.7358704]
    },
    {
        "type": "winery",
        "region": "Niagara Escarpment/Greater Niagara Area",
        "sub_region": "Greater Niagara Area",
        "name": "Schulze Vineyards and Winery",
        "address": "2090 Coomer Road",
        "city": "Burt",
        "state": "NY",
        "zip_code": "14028",
        "phone_number": "&#40;716&#41; 778-8090",
        "url": "http://www.schulzewines.com",
        "coordinates": [43.3166014,-78.7399478]
    },
    {
        "type": "winery",
        "region": "Niagara Escarpment/Greater Niagara Area",
        "sub_region": "Greater Niagara Area",
        "name": "Schwenk Wine Cellars",
        "address": "1456 Bills Road",
        "city": "Kent",
        "state": "NY",
        "zip_code": "14477",
        "phone_number": "585-682-4629",
        "url": "http://www.SchwenkWineCellars.com",
        "coordinates": [43.3424873,-78.1514282]
    },
    {
        "type": "winery",
        "region": "Niagara Escarpment/Greater Niagara Area",
        "sub_region": "Greater Niagara Area",
        "name": "Honeymoon Trail Winery",
        "address": "4120 Ridge Road",
        "city": "Lockport",
        "state": "NY",
        "zip_code": "14094",
        "phone_number": "&#40;716&#41; 438-3255",
        "url": "http://www.honeymoontrailwinery.com",
        "coordinates": [43.2016487,-78.8210678]
    },
    {
        "type": "winery",
        "region": "Niagara Escarpment/Greater Niagara Area",
        "sub_region": "Greater Niagara Area",
        "name": "810 Meadworks LLC",
        "address": "113 West Center St.",
        "city": "Medina",
        "state": "NY",
        "zip_code": "14103",
        "phone_number": "585-542-9810",
        "url": "",
        "coordinates": [43.2203469,-78.38771]
    },
    {
        "type": "winery",
        "region": "Niagara Escarpment/Greater Niagara Area",
        "sub_region": "Greater Niagara Area",
        "name": "Leonard Oakes Estate Winery",
        "address": "10609 Ridge Rd.",
        "city": "Medina",
        "state": "NY",
        "zip_code": "14103",
        "phone_number": "585-318-4418",
        "url": "http://www.oakeswinery.com",
        "coordinates": [43.2621384,-78.4376221]
    },
    {
        "type": "winery",
        "region": "Niagara Escarpment/Greater Niagara Area",
        "sub_region": "Greater Niagara Area",
        "name": "Chateau Niagara Winery",
        "address": "2466 West Creek Rd.",
        "city": "Newfane",
        "state": "NY",
        "zip_code": "14108",
        "phone_number": "716-778-7888",
        "url": "http://www.chateauniagarawinery.com",
        "coordinates": [43.297554,-78.7179337]
    },
    {
        "type": "winery",
        "region": "Niagara Escarpment/Greater Niagara Area",
        "sub_region": "Greater Niagara Area",
        "name": "A Gust of Sun",
        "address": "4515 Baer Rd.",
        "city": "Ransomville",
        "state": "NY",
        "zip_code": "14131",
        "phone_number": "716-731-GUST",
        "url": "http://www.agustofsun.com",
        "coordinates": [43.1946068,-78.8529587]
    },
    {
        "type": "winery",
        "region": "Niagara Escarpment/Greater Niagara Area",
        "sub_region": "Greater Niagara Area",
        "name": "Midnight Run Wine Cellars",
        "address": "3301 Braley Rd",
        "city": "Ransomville",
        "state": "NY",
        "zip_code": "14131",
        "phone_number": "716-751-6200",
        "url": "http://www.midnightrunwines.com",
        "coordinates": [43.265461,-78.8614044]
    },
    {
        "type": "winery",
        "region": "Niagara Escarpment/Greater Niagara Area",
        "sub_region": "Greater Niagara Area",
        "name": "Long Cliff Vineyard & Winery",
        "address": "3617 Lower Mountain Rd.",
        "city": "Sanborn",
        "state": "NY",
        "zip_code": "14132",
        "phone_number": "716-731-3316",
        "url": "http://www.longcliffwinery.com",
        "coordinates": [43.1768227,-78.8656921]
    },
    {
        "type": "winery",
        "region": "Niagara Escarpment/Greater Niagara Area",
        "sub_region": "Greater Niagara Area",
        "name": "Victorianbourg Wine Estate",
        "address": "4402 East Lake Road",
        "city": "Wilson",
        "state": "NY",
        "zip_code": "14172",
        "phone_number": "716-725-1274",
        "url": "http://www.victorianbourg.com",
        "coordinates": [43.3190804,-78.8030777]
    },
    {
        "type": "winery",
        "region": "Niagara Escarpment/Greater Niagara Area",
        "sub_region": "Niagara Escarpment",
        "name": "Vizcarra Vineyards at Becker Farms",
        "address": "3724 Quaker Road",
        "city": "Gasport",
        "state": "NY",
        "zip_code": "14967",
        "phone_number": "&#40;716&#41; 772-2211",
        "url": "http://www.beckerfarms.com",
        "coordinates": [43.2198181,-78.5427856]
    },
    {
        "type": "winery",
        "region": "Niagara Escarpment/Greater Niagara Area",
        "sub_region": "Niagara Escarpment",
        "name": "Arrowhead Spring Vineyards",
        "address": "4746 Townline Road",
        "city": "Lockport",
        "state": "NY",
        "zip_code": "14094",
        "phone_number": "&#40;716&#41; 434-8030",
        "url": "http://www.arrowheadspringvineyards.com",
        "coordinates": [43.1806288,-78.7543331]
    },
    {
        "type": "winery",
        "region": "Niagara Escarpment/Greater Niagara Area",
        "sub_region": "Niagara Escarpment",
        "name": "Eveningside Vineyards",
        "address": "4794 Lower Mountain Rd.",
        "city": "Lockport",
        "state": "NY",
        "zip_code": "14094",
        "phone_number": "&#40;716&#41; 867-2415",
        "url": "http://www.eveningside.com",
        "coordinates": [43.1822548,-78.7806854]
    },
    {
        "type": "winery",
        "region": "Niagara Escarpment/Greater Niagara Area",
        "sub_region": "Niagara Escarpment",
        "name": "Flight of Five",
        "address": "2 Pine St.",
        "city": "Lockport",
        "state": "NY",
        "zip_code": "14094",
        "phone_number": "716-433-3360",
        "url": "http://www.FlightofFiveWinery.com",
        "coordinates": [43.1707535,-78.6925125]
    },
    {
        "type": "winery",
        "region": "Niagara Escarpment/Greater Niagara Area",
        "sub_region": "Niagara Escarpment",
        "name": "Freedom Run Winery",
        "address": "5138 Lower Mountain Road",
        "city": "Lockport",
        "state": "NY",
        "zip_code": "14094",
        "phone_number": "&#40;716&#41; 433-4136",
        "url": "http://www.freedomrunwinery.com",
        "coordinates": [43.1792831,-78.7596588]
    },
    {
        "type": "winery",
        "region": "Niagara Escarpment/Greater Niagara Area",
        "sub_region": "Niagara Escarpment",
        "name": "Niagara Landing Wine Cellars",
        "address": "4434 Van Dusen Road",
        "city": "Lockport",
        "state": "NY",
        "zip_code": "14094",
        "phone_number": "&#40;716&#41; 433-8405",
        "url": "http://www.niagaralanding.com",
        "coordinates": [43.1909882,-78.8012248]
    },
    {
        "type": "winery",
        "region": "Niagara Escarpment/Greater Niagara Area",
        "sub_region": "Niagara Escarpment",
        "name": "Spring Lake Winery",
        "address": "7373 Rochester Road",
        "city": "Lockport",
        "state": "NY",
        "zip_code": "14094",
        "phone_number": "&#40;716&#41; 439-5253",
        "url": "http://www.springlakewinery.com",
        "coordinates": [null,null]
    },
    {
        "type": "winery",
        "region": "North Country",
        "sub_region": "Greater Adirondacks Area",
        "name": "Galway Rock Vineyard and Winery",
        "address": "1417 Kania Rd.",
        "city": "Amsterdam",
        "state": "NY",
        "zip_code": "12010",
        "phone_number": "518-290-7076",
        "url": "http://www.galwayrockwines.com",
        "coordinates": [42.9942398,-74.0746994]
    },
    {
        "type": "winery",
        "region": "North Country",
        "sub_region": "Greater Adirondacks Area",
        "name": "Johnston's Winery, Inc.",
        "address": "5140 Bliss Road",
        "city": "Ballston Spa",
        "state": "NY",
        "zip_code": "12020-",
        "phone_number": "&#40;518&#41; 882-6310",
        "url": "http://www.johnstonswinery.com",
        "coordinates": [43.0146599,-73.9746323]
    },
    {
        "type": "winery",
        "region": "North Country",
        "sub_region": "Greater Adirondacks Area",
        "name": "Natural Selection Farm",
        "address": "85 Darwin Rd.",
        "city": "Cambridge",
        "state": "NY",
        "zip_code": "12816",
        "phone_number": "518-677-5208",
        "url": "",
        "coordinates": [43.0051689,-73.4645004]
    },
    {
        "type": "winery",
        "region": "North Country",
        "sub_region": "Greater Adirondacks Area",
        "name": "Ledge Rock Hill Winery",
        "address": "41 Stewart Dam Road",
        "city": "Corinth",
        "state": "NY",
        "zip_code": "12822",
        "phone_number": "518-654-5467",
        "url": "http://www.lrhwinery.com",
        "coordinates": [43.2724304,-73.8947449]
    },
    {
        "type": "winery",
        "region": "North Country",
        "sub_region": "Greater Adirondacks Area",
        "name": "Oliva Vineyards",
        "address": "2074 Route 4",
        "city": "Fort Edward",
        "state": "NY",
        "zip_code": "12828",
        "phone_number": "518-747-2156",
        "url": "http://www.olivavineyards.com",
        "coordinates": [43.2301865,-73.5781403]
    },
    {
        "type": "winery",
        "region": "North Country",
        "sub_region": "Greater Adirondacks Area",
        "name": "Hummingbird Hills Winery",
        "address": "1442 Burtonville Rd.",
        "city": "Fultonville",
        "state": "NY",
        "zip_code": "12072",
        "phone_number": "518-875-6919",
        "url": "http://www.hummingbirdhillswinery.com",
        "coordinates": [42.811657,-74.3044662]
    },
    {
        "type": "winery",
        "region": "North Country",
        "sub_region": "Greater Adirondacks Area",
        "name": "Colebrook Country Wines",
        "address": "562 Colebrook Road",
        "city": "Gansevoort",
        "state": "NY",
        "zip_code": "12831",
        "phone_number": "518-261-1877",
        "url": "http://www.colebrookwines.com",
        "coordinates": [43.1603851,-73.6543198]
    },
    {
        "type": "winery",
        "region": "North Country",
        "sub_region": "Greater Adirondacks Area",
        "name": "Slyboro Cider House LLC",
        "address": "18 Hicks Road",
        "city": "Granville",
        "state": "NY",
        "zip_code": "12832",
        "phone_number": "&#40;518&#41; 642-1788",
        "url": "http://www.slyboro.com",
        "coordinates": [43.4128156,-73.3314946]
    },
    {
        "type": "winery",
        "region": "North Country",
        "sub_region": "Greater Adirondacks Area",
        "name": "Fossil Stone Vineyards",
        "address": "331 Grange Rd.",
        "city": "Greenfield Center",
        "state": "NY",
        "zip_code": "12833",
        "phone_number": "518-703-1784",
        "url": "",
        "coordinates": [43.1052666,-73.849968]
    },
    {
        "type": "winery",
        "region": "North Country",
        "sub_region": "Greater Adirondacks Area",
        "name": "Adirondack Winery",
        "address": "285 Canada St.",
        "city": "Lake George",
        "state": "NY",
        "zip_code": "12801",
        "phone_number": "518-636-5842",
        "url": "http://www.adirondackwinery.com",
        "coordinates": [43.4260826,-73.7130051]
    },
    {
        "type": "winery",
        "region": "North Country",
        "sub_region": "Greater Adirondacks Area",
        "name": "Goose Watch Winery",
        "address": "2523 Main Street Suite 3",
        "city": "Lake Placid",
        "state": "NY",
        "zip_code": "12946",
        "phone_number": "&#40;518&#41; 523-1955",
        "url": "http://www.goosewatch.com",
        "coordinates": [44.2873116,-73.9848022]
    },
    {
        "type": "winery",
        "region": "North Country",
        "sub_region": "Greater Adirondacks Area",
        "name": "Swedish Hill Winery",
        "address": "5730 Cascade Road, Suite 1",
        "city": "Lake Placid",
        "state": "NY",
        "zip_code": "12946",
        "phone_number": "&#40;518&#41; 523-2498",
        "url": "http://www.swedishhill.com"
    },
    {
        "type": "winery",
        "region": "North Country",
        "sub_region": "Greater Adirondacks Area",
        "name": "Montezuma Winery",
        "address": "3050 State Route 28",
        "city": "Old Forge",
        "state": "NY",
        "zip_code": "13420",
        "phone_number": "315-369-3320",
        "url": "http://www.montezumawinery.com",
        "coordinates": [43.7094893,-74.9748632]
    },
    {
        "type": "winery",
        "region": "North Country",
        "sub_region": "Greater Adirondacks Area",
        "name": "Swedish Hill Winery",
        "address": "379 Broadway",
        "city": "Saratoga Springs",
        "state": "NY",
        "zip_code": "12866",
        "phone_number": "518-450-1200.",
        "url": "http://www.swedishhill.com",
        "coordinates": [43.08097,-73.7857655]
    },
    {
        "type": "winery",
        "region": "North Country",
        "sub_region": "Greater Adirondacks Area",
        "name": "The Saratoga Winery",
        "address": "462 Route 29",
        "city": "Saratoga Springs",
        "state": "NY",
        "zip_code": "12866",
        "phone_number": "518-584-9463",
        "url": "http://www.thesaratogawinery.com",
        "coordinates": [43.0748881,-73.862462]
    },
    {
        "type": "winery",
        "region": "North Country",
        "sub_region": "Greater Adirondacks Area",
        "name": "Thirsty Owl Wine Company",
        "address": "194 S. Broadway",
        "city": "Saratoga Springs",
        "state": "NY",
        "zip_code": "12866",
        "phone_number": "518-587-9694",
        "url": "http://www.thirstyowl.com",
        "coordinates": [43.0739956,-73.7874024]
    },
    {
        "type": "winery",
        "region": "North Country",
        "sub_region": "Greater Adirondacks Area",
        "name": "Victory View Vineyard",
        "address": "11975 State Route 40",
        "city": "Schaghticoke",
        "state": "NY",
        "zip_code": "12154",
        "phone_number": "518-855-4006",
        "url": "http://www.victoryviewvineyard.com",
        "coordinates": [42.8294907,-73.6267395]
    },
    {
        "type": "winery",
        "region": "North Country",
        "sub_region": "Greater Adirondacks Area",
        "name": "Amorici Vineyard",
        "address": "637 Colonel Burch Rd.",
        "city": "Valley Falls",
        "state": "NY",
        "zip_code": "12185",
        "phone_number": "518-469-0680",
        "url": "http://www.amoricivineyard.com",
        "coordinates": [42.9537544,-73.5310364]
    },
    {
        "type": "winery",
        "region": "North Country",
        "sub_region": "Greater Adirondacks Area",
        "name": "Northern Star Vineyard",
        "address": "1106 Beadle Hill Rd.",
        "city": "Valley Falls",
        "state": "NY",
        "zip_code": "12185",
        "phone_number": "518-290-4282",
        "url": "http://www.northernstarvineyards.com",
        "coordinates": [42.9802475,-73.5212784]
    },
    {
        "type": "winery",
        "region": "North Country",
        "sub_region": "Greater Adirondacks Area",
        "name": "High Peaks Winery LLC",
        "address": "805 Pickle St.",
        "city": "Winthrop",
        "state": "NY",
        "zip_code": "13697",
        "phone_number": "315-353-0050",
        "url": "http://www.highpeakswinery.com",
        "coordinates": [44.775888,-74.8566851]
    },
    {
        "type": "winery",
        "region": "North Country",
        "sub_region": "Lake Champlain",
        "name": "Amazing Grace Vineyard & Winery",
        "address": "9839 Route 9",
        "city": "Chazy",
        "state": "NY",
        "zip_code": "12921",
        "phone_number": "518-215-4044",
        "url": "http://www.amazinggracevineyard.com",
        "coordinates": [44.9010277,-73.4372559]
    },
    {
        "type": "winery",
        "region": "North Country",
        "sub_region": "Lake Champlain",
        "name": "Stone House Vineyard",
        "address": "73 Blair Road",
        "city": "Mooers",
        "state": "NY",
        "zip_code": "12958",
        "phone_number": "518-493-5971",
        "url": "http://www.stonehousevineyardclintoncountyny.com",
        "coordinates": [44.9089432,-73.5442734]
    },
    {
        "type": "winery",
        "region": "North Country",
        "sub_region": "Lake Champlain",
        "name": "Hid-In-Pines Vineyard",
        "address": "456 Soper St.",
        "city": "Morrisonville",
        "state": "NY",
        "zip_code": "12962",
        "phone_number": "518-643-0006",
        "url": "http://www.hipvineyard.com",
        "coordinates": [44.6731415,-73.5878983]
    },
    {
        "type": "winery",
        "region": "North Country",
        "sub_region": "Lake Champlain",
        "name": "Elfs Farm",
        "address": "7411 State Route 9",
        "city": "Plattsburgh",
        "state": "NY",
        "zip_code": "12901",
        "phone_number": "518-563-2750",
        "url": "http://www.elfsfarm.com",
        "coordinates": [44.7431755,-73.4252625]
    },
    {
        "type": "winery",
        "region": "North Country",
        "sub_region": "Lake Champlain",
        "name": "The Champlain Wine Company",
        "address": "30 City Hall Place",
        "city": "Plattsburgh",
        "state": "NY",
        "zip_code": "12901",
        "phone_number": "518-564-0064",
        "url": "http://www.champlainwinecompany.com",
        "coordinates": [44.6983957,-73.4518687]
    },
    {
        "type": "winery",
        "region": "North Country",
        "sub_region": "Lake Champlain",
        "name": "Vesco Ridge Vineyards",
        "address": "167 Stratton Hill Road",
        "city": "West Chazy",
        "state": "NY",
        "zip_code": "12992",
        "phone_number": "518-846-8544",
        "url": "http://www.vescoridge.com",
        "coordinates": [44.8172705,-73.4420257]
    },
    {
        "type": "winery",
        "region": "North Country",
        "sub_region": "Thousand Islands",
        "name": "Thousand Islands Winery",
        "address": "43298 Seaway Ave., Suite 1",
        "city": "Alexandria Bay",
        "state": "NY",
        "zip_code": "13607",
        "phone_number": "&#40;315&#41; 482-9306",
        "url": "http://www.thousandislandswinery.com",
        "coordinates": [44.2927873,-75.9823787]
    },
    {
        "type": "winery",
        "region": "North Country",
        "sub_region": "Thousand Islands",
        "name": "Busted Grapes",
        "address": null,
        "city": "Black River",
        "state": "NY",
        "zip_code": "13612",
        "phone_number": null,
        "url": "",
        "coordinates":[]
    },
    {
        "type": "winery",
        "region": "North Country",
        "sub_region": "Thousand Islands",
        "name": "The Cape Winery",
        "address": "2066 Deerlick Rd.",
        "city": "Cape Vincent",
        "state": "NY",
        "zip_code": "13618",
        "phone_number": "315-654-3218",
        "url": "",
        "coordinates": [44.104399,-76.3296269]
    },
    {
        "type": "winery",
        "region": "North Country",
        "sub_region": "Thousand Islands",
        "name": "Coyote Moon Vineyards",
        "address": "17371 County Route 3",
        "city": "Clayton",
        "state": "NY",
        "zip_code": "13624",
        "phone_number": "315-686-5600",
        "url": "http://www.coyotemoonvineyards.com",
        "coordinates": [44.237849,-76.0222451]
    },
    {
        "type": "winery",
        "region": "North Country",
        "sub_region": "Thousand Islands",
        "name": "Coyote Moon Vineyards",
        "address": "524 Riverside Dr.",
        "city": "Clayton",
        "state": "NY",
        "zip_code": "13624",
        "phone_number": "315-686-4030",
        "url": "http://www.coyotemoonvineyards.com",
        "coordinates": [44.2422659,-76.0885439]
    },
    {
        "type": "winery",
        "region": "North Country",
        "sub_region": "Thousand Islands",
        "name": "Bella-Brooke Vineyard",
        "address": "2989 County Road 6",
        "city": "Hammond",
        "state": "NY",
        "zip_code": "13646",
        "phone_number": "315-375-3044",
        "url": "http://www.bella-brookevineyard.com",
        "coordinates": [44.5103929,-75.6157402]
    },
    {
        "type": "winery",
        "region": "North Country",
        "sub_region": "Thousand Islands",
        "name": "Tug Hill Vineyards",
        "address": "4051 Yancey Road",
        "city": "Lowville",
        "state": "NY",
        "zip_code": "13367",
        "phone_number": "315-376-4336",
        "url": "http://www.tughillvineyards.com",
        "coordinates": [43.8198495,-75.5789302]
    },
    {
        "type": "winery",
        "region": "North Country",
        "sub_region": "Thousand Islands",
        "name": "River Myst Winery LLC",
        "address": "9830 State Hwy. 37",
        "city": "Ogdensburg",
        "state": "NY",
        "zip_code": "13669",
        "phone_number": "&#40;315&#41; 713-4702",
        "url": "http://www.rivermystwinery.net",
        "coordinates": [44.7626708,-75.3784592]
    },
    {
        "type": "winery",
        "region": "North Country",
        "sub_region": "Thousand Islands",
        "name": "Otter Creek Winery, LLC",
        "address": "33109 Rudes Road",
        "city": "Philadelphia",
        "state": "NY",
        "zip_code": "13673",
        "phone_number": "&#40;315&#41; 642-0622",
        "url": "http://www.ottercreekwinery.com",
        "coordinates": [44.1937332,-75.7180252]
    },
    {
        "type": "winery",
        "region": "North Country",
        "sub_region": "Thousand Islands",
        "name": "Venditti Vineyards",
        "address": "42780 New Connecticut Rd",
        "city": "Theresa",
        "state": "NY",
        "zip_code": "13691",
        "phone_number": "315-287-0500",
        "url": "http://www.vendittivineyards.com/",
        "coordinates": [44.2881773,-75.6803291]
    },
    {
        "type": "winery",
        "region": "North Country",
        "sub_region": "Thousand Islands",
        "name": "Coyote Moon Vineyards",
        "address": "21182 Salmon Run Mall Loop West, Unit B104",
        "city": "Watertown",
        "state": "NY",
        "zip_code": "13601",
        "phone_number": "315-782-0050",
        "url": "http://www.coyotemoonvineyards.com",
        "coordinates":[43.9815941,-75.9498864]
    },
    {
        "type": "winery",
        "region": "North Country",
        "sub_region": "Thousand Islands",
        "name": "Yellow Barn Winery",
        "address": "18876 County Route 66",
        "city": "Watertown",
        "state": "NY",
        "zip_code": "13601",
        "phone_number": "&#40;315&#41; 782-1824",
        "url": "http://www.yellowbarnwinery.com",
        "coordinates": [43.9357986,-76.062973]
    },
    {
        "type": "winery",
        "region": "Other Western Counties",
        "sub_region": null,
        "name": "Angelica Winery Inc.",
        "address": "15 South St.",
        "city": "Angelica",
        "state": "NY",
        "zip_code": "14709",
        "phone_number": "585-403-6728",
        "url": "http://www.angelicawinery.com",
        "coordinates": [42.3052216,-78.0170746]
    },
    {
        "type": "winery",
        "region": "Other Western Counties",
        "sub_region": null,
        "name": "Element Winery",
        "address": null,
        "city": "Arkport",
        "state": "NY",
        "zip_code": "14807",
        "phone_number": "585-943-7820",
        "url": "http://www.elementwinery.com",
        "coordinates": [42.4768982,-77.6924896]
    },
    {
        "type": "winery",
        "region": "Other Western Counties",
        "sub_region": null,
        "name": "Main Street Winery",
        "address": "249 Main St., Ste. 2",
        "city": "Arcade",
        "state": "NY",
        "zip_code": "14009",
        "phone_number": "585-492-2739",
        "url": "http://www.mainstreetwinesandsupplies.com",
        "coordinates":[42.534523,-78.4226913]
    },
    {
        "type": "winery",
        "region": "Other Western Counties",
        "sub_region": null,
        "name": "Wild Brute Winery",
        "address": "8629 Oak Hill Rd.",
        "city": "Arkport",
        "state": "NY",
        "zip_code": "14807",
        "phone_number": null,
        "url": "http://www.wildbrutewinery.com",
        "coordinates": [42.417303,-77.6868099]
    }
]